osm_type,osm_id,category,name,lat,lon,source_key,source_value,neighbourhood,district,distance_to_neighbourhood_km,osm_assignment_method,osm_outside_boundary_count
node,24958713,pub,Ølbaren,55.6892753,12.5578754,amenity,pub,Nørrebro,Nørrebro,0.0,official_boundary_point_in_polygon,2906
node,24971137,restaurant,Juma,55.690348,12.5640201,amenity,restaurant,Nørrebro,Nørrebro,0.0,official_boundary_point_in_polygon,2906
node,25440190,cinema,Empire Bio,55.691954,12.555818,amenity,cinema,Nørrebro,Nørrebro,0.0,official_boundary_point_in_polygon,2906
node,25440922,pub,Bankeråt,55.6834082,12.5651843,amenity,pub,Indre By,Indre By,0.0,official_boundary_point_in_polygon,2906
node,25869217,bar,Black Swan,55.6864894,12.5874331,amenity,bar,Indre By,Indre By,0.0,official_boundary_point_in_polygon,2906
node,25904721,bar,Café Viking,55.6996104,12.5467101,amenity,bar,Nørrebro,Nørrebro,0.0,official_boundary_point_in_polygon,2906
node,31269448,toilets,,55.7220522,12.5229858,amenity,toilets,Bispebjerg,Bispebjerg,0.0,official_boundary_point_in_polygon,2906
node,80236826,bench,,55.6932664,12.5128241,amenity,bench,Vanløse,Vanløse,0.0,official_boundary_point_in_polygon,2906
node,115167440,restaurant,Ingolfs Kaffebar,55.6501334,12.6119742,amenity,restaurant,Amager Vest,Amager Vest,0.0,official_boundary_point_in_polygon,2906
node,137534794,restaurant,Rio Bravo,55.6742501,12.5730625,amenity,restaurant,Indre By,Indre By,0.0,official_boundary_point_in_polygon,2906
node,247089822,toilets,,55.6629834,12.6385889,amenity,toilets,Amager Øst,Amager Øst,0.0,official_boundary_point_in_polygon,2906
node,247090013,toilets,,55.6582905,12.6429036,amenity,toilets,Amager Øst,Amager Øst,0.0,official_boundary_point_in_polygon,2906
node,247090041,toilets,,55.6545374,12.6493056,amenity,toilets,Amager Øst,Amager Øst,0.0,official_boundary_point_in_polygon,2906
node,250354071,nightclub,Kakadu Bar,55.6727304,12.5616092,amenity,nightclub,Vesterbro-Kongens Enghave,Vesterbro-Kongens Enghave,0.0,official_boundary_point_in_polygon,2906
node,269264421,restaurant,Sticks'n'Sushi,55.6697106,12.5547131,amenity,restaurant,Vesterbro-Kongens Enghave,Vesterbro-Kongens Enghave,0.0,official_boundary_point_in_polygon,2906
node,272860527,supermarket,Netto,55.655972,12.4854155,shop,supermarket,Valby,Valby,0.0,official_boundary_point_in_polygon,2906
node,272860703,supermarket,Netto,55.6432347,12.501348,shop,supermarket,Valby,Valby,0.0,official_boundary_point_in_polygon,2906
node,277363233,cinema,Nordisk Film Biografer Imperial,55.6752481,12.5612896,amenity,cinema,Indre By,Indre By,0.0,official_boundary_point_in_polygon,2906
node,277363249,cinema,Dagmar,55.6763516,12.5664052,amenity,cinema,Indre By,Indre By,0.0,official_boundary_point_in_polygon,2906
node,277365064,library,Brønshøj Bibliotek,55.7041757,12.4992001,amenity,library,Brønshøj-Husum,Brønshøj-Husum,0.0,official_boundary_point_in_polygon,2906
node,277365310,library,Husum Bibliotek,55.7108103,12.4772025,amenity,library,Brønshøj-Husum,Brønshøj-Husum,0.0,official_boundary_point_in_polygon,2906
node,277633635,cinema,Vester Vov Vov,55.6719838,12.5540534,amenity,cinema,Vesterbro-Kongens Enghave,Vesterbro-Kongens Enghave,0.0,official_boundary_point_in_polygon,2906
node,277634020,cinema,Vue,55.6624522,12.5631317,amenity,cinema,Vesterbro-Kongens Enghave,Vesterbro-Kongens Enghave,0.0,official_boundary_point_in_polygon,2906
node,278113654,cinema,Grand Teatret,55.6764656,12.5710077,amenity,cinema,Indre By,Indre By,0.0,official_boundary_point_in_polygon,2906
node,278113776,cinema,Gloria,55.6761121,12.5706741,amenity,cinema,Indre By,Indre By,0.0,official_boundary_point_in_polygon,2906
node,279108763,library,Vanløse Bibliotek,55.6866031,12.4914391,amenity,library,Vanløse,Vanløse,0.0,official_boundary_point_in_polygon,2906
node,279183613,cafe,Cafe Bopa,55.7052359,12.581411,amenity,cafe,Østerbro,Østerbro,0.0,official_boundary_point_in_polygon,2906
node,279183730,restaurant,Kafe Kapers,55.7050842,12.5768017,amenity,restaurant,Østerbro,Østerbro,0.0,official_boundary_point_in_polygon,2906
node,279199290,restaurant,Wagamama,55.6722759,12.5690757,amenity,restaurant,Indre By,Indre By,0.0,official_boundary_point_in_polygon,2906
node,279432503,cinema,Park Bio,55.7037568,12.5771901,amenity,cinema,Østerbro,Østerbro,0.0,official_boundary_point_in_polygon,2906
node,279471447,cafe,Europa 1989,55.6786502,12.5793688,amenity,cafe,Indre By,Indre By,0.0,official_boundary_point_in_polygon,2906
node,279471887,cafe,Zirup,55.6779484,12.5771986,amenity,cafe,Indre By,Indre By,0.0,official_boundary_point_in_polygon,2906
node,279471969,cafe,Kafe Kys Cafe & Bar,55.6781594,12.5784029,amenity,cafe,Indre By,Indre By,0.0,official_boundary_point_in_polygon,2906
node,279472058,cafe,Hoppe's,55.6780367,12.5780645,amenity,cafe,Indre By,Indre By,0.0,official_boundary_point_in_polygon,2906
node,279472070,cafe,Wanna B,55.6777283,12.5765653,amenity,cafe,Indre By,Indre By,0.0,official_boundary_point_in_polygon,2906
node,279472194,bar,Drop Inn,55.6763998,12.5733293,amenity,bar,Indre By,Indre By,0.0,official_boundary_point_in_polygon,2906
node,279472282,restaurant,Il Ponte,55.6765807,12.5718891,amenity,restaurant,Indre By,Indre By,0.0,official_boundary_point_in_polygon,2906
node,279472358,restaurant,Wining & Dining,55.6797762,12.5754143,amenity,restaurant,Indre By,Indre By,0.0,official_boundary_point_in_polygon,2906
node,279472397,cafe,Flottenheimer,55.6802012,12.5750978,amenity,cafe,Indre By,Indre By,0.0,official_boundary_point_in_polygon,2906
node,279472775,restaurant,Ristorante Amalfi,55.679433,12.575349,amenity,restaurant,Indre By,Indre By,0.0,official_boundary_point_in_polygon,2906
node,279473881,restaurant,Cafe Victor,55.6807127,12.5832761,amenity,restaurant,Indre By,Indre By,0.0,official_boundary_point_in_polygon,2906
node,279474458,restaurant,La Vecchia Signora,55.6809107,12.5824969,amenity,restaurant,Indre By,Indre By,0.0,official_boundary_point_in_polygon,2906
node,279474704,restaurant,L'Alsace,55.6807191,12.5828713,amenity,restaurant,Indre By,Indre By,0.0,official_boundary_point_in_polygon,2906
node,279475627,restaurant,Mama Rosa,55.6790105,12.5805759,amenity,restaurant,Indre By,Indre By,0.0,official_boundary_point_in_polygon,2906
node,279690426,pub,Pub & Sport,55.6782361,12.5668224,amenity,pub,Indre By,Indre By,0.0,official_boundary_point_in_polygon,2906
node,279694584,cafe,Sebastopol,55.6908349,12.560148,amenity,cafe,Nørrebro,Nørrebro,0.0,official_boundary_point_in_polygon,2906
node,280464811,nightclub,Club Mambo,55.6750928,12.5721856,amenity,nightclub,Indre By,Indre By,0.0,official_boundary_point_in_polygon,2906
node,280465638,restaurant,Jensen's Bøfhus Axeltorv,55.6763037,12.5644933,amenity,restaurant,Indre By,Indre By,0.0,official_boundary_point_in_polygon,2906
node,280466297,restaurant,La Galette,55.6778757,12.5695321,amenity,restaurant,Indre By,Indre By,0.0,official_boundary_point_in_polygon,2906
node,280466425,restaurant,L'education Nationale,55.678228,12.569743,amenity,restaurant,Indre By,Indre By,0.0,official_boundary_point_in_polygon,2906
node,280466677,restaurant,Dubrovnik,55.6781715,12.5680739,amenity,restaurant,Indre By,Indre By,0.0,official_boundary_point_in_polygon,2906
node,280530603,nightclub,Maxims,55.671961,12.5555508,amenity,nightclub,Vesterbro-Kongens Enghave,Vesterbro-Kongens Enghave,0.0,official_boundary_point_in_polygon,2906
node,280530930,restaurant,Jensen's Bøfhus,55.6733149,12.5616617,amenity,restaurant,Vesterbro-Kongens Enghave,Vesterbro-Kongens Enghave,0.0,official_boundary_point_in_polygon,2906
node,280679726,restaurant,Deep,55.666871,12.597726,amenity,restaurant,Amager Vest,Amager Vest,0.0,official_boundary_point_in_polygon,2906
node,280679787,restaurant,Rimini,55.6681601,12.5971417,amenity,restaurant,Amager Øst,Amager Øst,0.0,official_boundary_point_in_polygon,2906
node,280679974,restaurant,Krog's Fiskerestaurant,55.6777413,12.5785538,amenity,restaurant,Indre By,Indre By,0.0,official_boundary_point_in_polygon,2906
node,280790034,restaurant,Ankara,55.6811269,12.5741096,amenity,restaurant,Indre By,Indre By,0.0,official_boundary_point_in_polygon,2906
node,280790084,pub,Lord Nelson,55.677942,12.5768752,amenity,pub,Indre By,Indre By,0.0,official_boundary_point_in_polygon,2906
node,280790408,restaurant,Shahi,55.6787069,12.5727364,amenity,restaurant,Indre By,Indre By,0.0,official_boundary_point_in_polygon,2906
node,280790473,pub,Charlie Scotts,55.6786922,12.5732662,amenity,pub,Indre By,Indre By,0.0,official_boundary_point_in_polygon,2906
node,280809193,pub,Cafe Langebro,55.6691735,12.5802893,amenity,pub,Amager Vest,Amager Vest,0.0,official_boundary_point_in_polygon,2906
node,280955740,restaurant,Hong Cheng,55.7089635,12.5754032,amenity,restaurant,Østerbro,Østerbro,0.0,official_boundary_point_in_polygon,2906
node,281002969,restaurant,Safir Kebab,55.690498,12.5441844,amenity,restaurant,Nørrebro,Nørrebro,0.0,official_boundary_point_in_polygon,2906
node,281062886,pub,Zoo Bar,55.681009,12.5806605,amenity,pub,Indre By,Indre By,0.0,official_boundary_point_in_polygon,2906
node,281063017,pub,Charlie's Bar,55.6806132,12.5802876,amenity,pub,Indre By,Indre By,0.0,official_boundary_point_in_polygon,2906
node,281063912,restaurant,Zeleste,55.6809061,12.5883161,amenity,restaurant,Indre By,Indre By,0.0,official_boundary_point_in_polygon,2906
node,281063934,bar,Klods Hans,55.680579,12.588872,amenity,bar,Indre By,Indre By,0.0,official_boundary_point_in_polygon,2906
node,281064392,restaurant,Italiano,55.6792833,12.5738811,amenity,restaurant,Indre By,Indre By,0.0,official_boundary_point_in_polygon,2906
node,281253328,restaurant,Wok On,55.6780529,12.5803408,amenity,restaurant,Indre By,Indre By,0.0,official_boundary_point_in_polygon,2906
node,281253627,cafe,Diamanten,55.6774884,12.5775062,amenity,cafe,Indre By,Indre By,0.0,official_boundary_point_in_polygon,2906
node,281253914,cafe,Cafe Katz,55.6760515,12.5750716,amenity,cafe,Indre By,Indre By,0.0,official_boundary_point_in_polygon,2906
node,281254516,restaurant,Marv & Ben,55.6772838,12.5769463,amenity,restaurant,Indre By,Indre By,0.0,official_boundary_point_in_polygon,2906
node,281255286,bar,The Goat,55.6719584,12.5547149,amenity,bar,Vesterbro-Kongens Enghave,Vesterbro-Kongens Enghave,0.0,official_boundary_point_in_polygon,2906
node,281255578,restaurant,Le Basilic,55.6719106,12.5562393,amenity,restaurant,Vesterbro-Kongens Enghave,Vesterbro-Kongens Enghave,0.0,official_boundary_point_in_polygon,2906
node,281256703,restaurant,Apropos,55.6707876,12.5610473,amenity,restaurant,Vesterbro-Kongens Enghave,Vesterbro-Kongens Enghave,0.0,official_boundary_point_in_polygon,2906
node,281256994,restaurant,Porn-Sak,55.6692654,12.5577022,amenity,restaurant,Vesterbro-Kongens Enghave,Vesterbro-Kongens Enghave,0.0,official_boundary_point_in_polygon,2906
node,281539304,restaurant,Beijing,55.6770342,12.5703318,amenity,restaurant,Indre By,Indre By,0.0,official_boundary_point_in_polygon,2906
node,281539863,pub,The Scottish Pub,55.6759526,12.567219,amenity,pub,Indre By,Indre By,0.0,official_boundary_point_in_polygon,2906
node,281541027,restaurant,Flora's Steakhouse,55.6733045,12.5596734,amenity,restaurant,Vesterbro-Kongens Enghave,Vesterbro-Kongens Enghave,0.0,official_boundary_point_in_polygon,2906
node,281787039,restaurant,Radio,55.6819882,12.5543323,amenity,restaurant,Nørrebro,Nørrebro,0.0,official_boundary_point_in_polygon,2906
node,281787344,cafe,Sabine's Cafeteria,55.6793628,12.5685853,amenity,cafe,Indre By,Indre By,0.0,official_boundary_point_in_polygon,2906
node,281787637,pub,Brew Pub,55.6771072,12.5694984,amenity,pub,Indre By,Indre By,0.0,official_boundary_point_in_polygon,2906
node,281788003,restaurant,Nytorv,55.67721,12.5736687,amenity,restaurant,Indre By,Indre By,0.0,official_boundary_point_in_polygon,2906
node,281998525,bar,Blågårds Apotek,55.6864556,12.5579695,amenity,bar,Nørrebro,Nørrebro,0.0,official_boundary_point_in_polygon,2906
node,281998976,restaurant,Zafran,55.6873787,12.5595118,amenity,restaurant,Nørrebro,Nørrebro,0.0,official_boundary_point_in_polygon,2906
node,281999239,cafe,Starbucks,55.683693,12.5709974,amenity,cafe,Indre By,Indre By,0.0,official_boundary_point_in_polygon,2906
node,282272223,restaurant,Salt,55.6820201,12.5941964,amenity,restaurant,Indre By,Indre By,0.0,official_boundary_point_in_polygon,2906
node,282680168,supermarket,SuperBrugsen,55.6479992,12.526752,shop,supermarket,Vesterbro-Kongens Enghave,Vesterbro-Kongens Enghave,0.0,official_boundary_point_in_polygon,2906
node,282699507,library,Sydhavnens Bibliotek,55.6467542,12.5300363,amenity,library,Vesterbro-Kongens Enghave,Vesterbro-Kongens Enghave,0.0,official_boundary_point_in_polygon,2906
node,282699526,cafe,Cafe Karen,55.6466429,12.5301017,amenity,cafe,Vesterbro-Kongens Enghave,Vesterbro-Kongens Enghave,0.0,official_boundary_point_in_polygon,2906
node,282821186,cafe,Cafe Ciré,55.6665053,12.5148218,amenity,cafe,Valby,Valby,0.0,official_boundary_point_in_polygon,2906
node,282821200,restaurant,Hotel Fy & Bi,55.6664428,12.5145524,amenity,restaurant,Valby,Valby,0.0,official_boundary_point_in_polygon,2906
node,283040256,supermarket,365discount,55.6484839,12.5346597,shop,supermarket,Vesterbro-Kongens Enghave,Vesterbro-Kongens Enghave,0.0,official_boundary_point_in_polygon,2906
node,283193400,cafe,Kalaset,55.6846984,12.566704,amenity,cafe,Indre By,Indre By,0.0,official_boundary_point_in_polygon,2906
node,283194050,restaurant,Pintxos,55.6844442,12.5660522,amenity,restaurant,Indre By,Indre By,0.0,official_boundary_point_in_polygon,2906
node,283205289,cafe,Fata'Morgana,55.6914483,12.5395657,amenity,cafe,Nørrebro,Nørrebro,0.0,official_boundary_point_in_polygon,2906
node,283581117,cafe,Teatermuseet,55.6747822,12.5786288,amenity,cafe,Indre By,Indre By,0.0,official_boundary_point_in_polygon,2906
node,284480077,supermarket,Brugsen,55.6724767,12.5553973,shop,supermarket,Vesterbro-Kongens Enghave,Vesterbro-Kongens Enghave,0.0,official_boundary_point_in_polygon,2906
node,284480821,supermarket,Føtex,55.6727937,12.5509072,shop,supermarket,Vesterbro-Kongens Enghave,Vesterbro-Kongens Enghave,0.0,official_boundary_point_in_polygon,2906
node,286393010,library,Øbro Jagtvej Bibliotek,55.7091554,12.5763743,amenity,library,Østerbro,Østerbro,0.0,official_boundary_point_in_polygon,2906
node,286402481,restaurant,Le Saint Jacques,55.7034223,12.5779306,amenity,restaurant,Østerbro,Østerbro,0.0,official_boundary_point_in_polygon,2906
node,286508329,supermarket,365discount,55.6482365,12.5274664,shop,supermarket,Vesterbro-Kongens Enghave,Vesterbro-Kongens Enghave,0.0,official_boundary_point_in_polygon,2906
node,286513862,supermarket,365discount,55.6509929,12.536485,shop,supermarket,Vesterbro-Kongens Enghave,Vesterbro-Kongens Enghave,0.0,official_boundary_point_in_polygon,2906
node,286529734,restaurant,Sushi Nørregade,55.6818262,12.5712029,amenity,restaurant,Indre By,Indre By,0.0,official_boundary_point_in_polygon,2906
node,286529910,restaurant,Sticks'n'Sushi,55.6841991,12.5647608,amenity,restaurant,Indre By,Indre By,0.0,official_boundary_point_in_polygon,2906
node,286530909,restaurant,Cafe Munk,55.6843897,12.5673006,amenity,restaurant,Indre By,Indre By,0.0,official_boundary_point_in_polygon,2906
node,286532706,restaurant,Restaurant Koefoed,55.6829182,12.5854059,amenity,restaurant,Indre By,Indre By,0.0,official_boundary_point_in_polygon,2906
node,286533157,restaurant,Cantina,55.6823201,12.5841755,amenity,restaurant,Indre By,Indre By,0.0,official_boundary_point_in_polygon,2906
node,287381693,supermarket,Kvickly,55.694626,12.548037,shop,supermarket,Nørrebro,Nørrebro,0.0,official_boundary_point_in_polygon,2906
node,288658689,cafe,Sommerfuglen,55.6658202,12.5114188,amenity,cafe,Valby,Valby,0.0,official_boundary_point_in_polygon,2906
node,288658698,cafe,Cafe Phenix,55.6661009,12.5124513,amenity,cafe,Valby,Valby,0.0,official_boundary_point_in_polygon,2906
node,288806413,restaurant,Kreta III,55.6919542,12.4838613,amenity,restaurant,Vanløse,Vanløse,0.0,official_boundary_point_in_polygon,2906
node,290327037,restaurant,Sticks'n'Sushi,55.6658044,12.513765,amenity,restaurant,Valby,Valby,0.0,official_boundary_point_in_polygon,2906
node,290439211,supermarket,Netto,55.68107,12.572657,shop,supermarket,Indre By,Indre By,0.0,official_boundary_point_in_polygon,2906
node,290664171,supermarket,Netto,55.6967005,12.5378918,shop,supermarket,Nørrebro,Nørrebro,0.0,official_boundary_point_in_polygon,2906
node,290664295,supermarket,Føtex,55.7012667,12.538426,shop,supermarket,Nørrebro,Nørrebro,0.0,official_boundary_point_in_polygon,2906
node,291329053,library,Vesterbro Bibliotek,55.6677861,12.5437877,amenity,library,Vesterbro-Kongens Enghave,Vesterbro-Kongens Enghave,0.0,official_boundary_point_in_polygon,2906
node,291568140,supermarket,SuperBrugsen,55.7042937,12.499572,shop,supermarket,Brønshøj-Husum,Brønshøj-Husum,0.0,official_boundary_point_in_polygon,2906
node,292175138,restaurant,Kebabish,55.6731288,12.5604195,amenity,restaurant,Vesterbro-Kongens Enghave,Vesterbro-Kongens Enghave,0.0,official_boundary_point_in_polygon,2906
node,292352715,restaurant,Den Lille Fede,55.6821848,12.5856599,amenity,restaurant,Indre By,Indre By,0.0,official_boundary_point_in_polygon,2906
node,292352764,restaurant,Restaurant Vita,55.6826427,12.5860671,amenity,restaurant,Indre By,Indre By,0.0,official_boundary_point_in_polygon,2906
node,292352917,restaurant,Hereford Steak,55.6827296,12.5865208,amenity,restaurant,Indre By,Indre By,0.0,official_boundary_point_in_polygon,2906
node,292353033,restaurant,Royal Garden,55.6841125,12.5856999,amenity,restaurant,Indre By,Indre By,0.0,official_boundary_point_in_polygon,2906
node,292353501,restaurant,El Viejo Mexico,55.6844872,12.5876301,amenity,restaurant,Indre By,Indre By,0.0,official_boundary_point_in_polygon,2906
node,293430281,bicycle_parking,,55.702849,12.560539,amenity,bicycle_parking,Nørrebro,Nørrebro,0.0,official_boundary_point_in_polygon,2906
node,297980181,supermarket,Netto,55.6511201,12.6208885,shop,supermarket,Amager Øst,Amager Øst,0.0,official_boundary_point_in_polygon,2906
node,298078187,restaurant,Bindia Blegdamsvej,55.6986394,12.5761578,amenity,restaurant,Østerbro,Østerbro,0.0,official_boundary_point_in_polygon,2906
node,298723448,cafe,Den Franske Cafe,55.6976437,12.5781018,amenity,cafe,Østerbro,Østerbro,0.0,official_boundary_point_in_polygon,2906
node,298723918,cafe,Kaffesalonen,55.6867256,12.5617007,amenity,cafe,Nørrebro,Nørrebro,0.0,official_boundary_point_in_polygon,2906
node,298723979,bar,ALEFARM NBRO,55.6871555,12.5621011,amenity,bar,Nørrebro,Nørrebro,0.0,official_boundary_point_in_polygon,2906
node,298795688,pharmacy,Steno Apotek,55.674526,12.5633101,amenity,pharmacy,Indre By,Indre By,0.0,official_boundary_point_in_polygon,2906
node,298795699,restaurant,Vestauranten,55.6695947,12.5646074,amenity,restaurant,Vesterbro-Kongens Enghave,Vesterbro-Kongens Enghave,0.0,official_boundary_point_in_polygon,2906
node,298796142,restaurant,Hebron,55.6726211,12.5607845,amenity,restaurant,Vesterbro-Kongens Enghave,Vesterbro-Kongens Enghave,0.0,official_boundary_point_in_polygon,2906
node,299394870,supermarket,Netto,55.6685937,12.5969145,shop,supermarket,Amager Øst,Amager Øst,0.0,official_boundary_point_in_polygon,2906
node,300410990,bar,The Moose,55.6810855,12.5804647,amenity,bar,Indre By,Indre By,0.0,official_boundary_point_in_polygon,2906
node,301511854,cafe,Det Elektriske Hjørne,55.6815478,12.5822074,amenity,cafe,Indre By,Indre By,0.0,official_boundary_point_in_polygon,2906
node,304514540,supermarket,Rema 1000,55.6941357,12.5103328,shop,supermarket,Vanløse,Vanløse,0.0,official_boundary_point_in_polygon,2906
node,305260437,restaurant,Chili's,55.6345603,12.5885828,amenity,restaurant,Amager Vest,Amager Vest,0.0,official_boundary_point_in_polygon,2906
node,307614875,restaurant,Aristo,55.6692418,12.5791679,amenity,restaurant,Amager Vest,Amager Vest,0.0,official_boundary_point_in_polygon,2906
node,307614912,cafe,Bryggens Spisehus,55.6669073,12.5763106,amenity,cafe,Amager Vest,Amager Vest,0.0,official_boundary_point_in_polygon,2906
node,307614990,supermarket,365discount,55.6668195,12.5786055,shop,supermarket,Amager Vest,Amager Vest,0.0,official_boundary_point_in_polygon,2906
node,307618896,supermarket,Netto,55.691746,12.4810927,shop,supermarket,Vanløse,Vanløse,0.0,official_boundary_point_in_polygon,2906
node,307619191,supermarket,SuperBrugsen,55.6824589,12.4836586,shop,supermarket,Vanløse,Vanløse,0.0,official_boundary_point_in_polygon,2906
node,307619209,supermarket,365discount,55.6803997,12.4843542,shop,supermarket,Vanløse,Vanløse,0.0,official_boundary_point_in_polygon,2906
node,307619293,supermarket,Føtex,55.6879025,12.4936206,shop,supermarket,Vanløse,Vanløse,0.0,official_boundary_point_in_polygon,2906
node,307876819,library,Blågårdens Bibliotek,55.6859744,12.5569057,amenity,library,Nørrebro,Nørrebro,0.0,official_boundary_point_in_polygon,2906
node,311470440,cafe,Studenterhuset,55.681192,12.576282,amenity,cafe,Indre By,Indre By,0.0,official_boundary_point_in_polygon,2906
node,313709771,supermarket,Netto,55.6854075,12.5568466,shop,supermarket,Nørrebro,Nørrebro,0.0,official_boundary_point_in_polygon,2906
node,313730187,cafe,Cafe Wilder,55.6739679,12.5915653,amenity,cafe,Indre By,Indre By,0.0,official_boundary_point_in_polygon,2906
node,313730277,bar,Eiffel Bar,55.6740554,12.5916958,amenity,bar,Indre By,Indre By,0.0,official_boundary_point_in_polygon,2906
node,330023011,nightclub,Mexibar,55.6905757,12.5599645,amenity,nightclub,Nørrebro,Nørrebro,0.0,official_boundary_point_in_polygon,2906
node,332631902,cafe,Shabaz,55.6958385,12.5724364,amenity,cafe,Østerbro,Østerbro,0.0,official_boundary_point_in_polygon,2906
node,334488835,restaurant,Tribeca NV,55.7062497,12.5343603,amenity,restaurant,Bispebjerg,Bispebjerg,0.0,official_boundary_point_in_polygon,2906
node,334648651,supermarket,Meny Østerfælled Torv,55.7059039,12.5761031,shop,supermarket,Østerbro,Østerbro,0.0,official_boundary_point_in_polygon,2906
node,335679944,restaurant,1899,55.6828339,12.5744665,amenity,restaurant,Indre By,Indre By,0.0,official_boundary_point_in_polygon,2906
node,335947801,supermarket,Netto,55.708306,12.483331,shop,supermarket,Brønshøj-Husum,Brønshøj-Husum,0.0,official_boundary_point_in_polygon,2906
node,335962972,pub,Café Stefanshus,55.6953457,12.543356,amenity,pub,Nørrebro,Nørrebro,0.0,official_boundary_point_in_polygon,2906
node,335962988,cafe,Coffee Collective,55.6937182,12.542283,amenity,cafe,Nørrebro,Nørrebro,0.0,official_boundary_point_in_polygon,2906
node,335975477,restaurant,Kreta,55.6934573,12.547615,amenity,restaurant,Nørrebro,Nørrebro,0.0,official_boundary_point_in_polygon,2906
node,338895632,supermarket,365discount,55.7059428,12.4909738,shop,supermarket,Brønshøj-Husum,Brønshøj-Husum,0.0,official_boundary_point_in_polygon,2906
node,340502719,restaurant,Restaurant Klubben,55.6711195,12.5457687,amenity,restaurant,Vesterbro-Kongens Enghave,Vesterbro-Kongens Enghave,0.0,official_boundary_point_in_polygon,2906
node,371823395,supermarket,365discount,55.7064992,12.5850347,shop,supermarket,Østerbro,Østerbro,0.0,official_boundary_point_in_polygon,2906
node,393191693,bench,,55.687856,12.5621548,amenity,bench,Nørrebro,Nørrebro,0.0,official_boundary_point_in_polygon,2906
node,413370338,bar,Sjus Bar,55.6810813,12.5798685,amenity,bar,Indre By,Indre By,0.0,official_boundary_point_in_polygon,2906
node,413532145,supermarket,Netto,55.6642144,12.5158825,shop,supermarket,Valby,Valby,0.0,official_boundary_point_in_polygon,2906
node,413709230,pharmacy,Trekroner Apotek,55.661859,12.5185311,amenity,pharmacy,Valby,Valby,0.0,official_boundary_point_in_polygon,2906
node,417138238,pub,Café Ellebo,55.6503992,12.5274396,amenity,pub,Vesterbro-Kongens Enghave,Vesterbro-Kongens Enghave,0.0,official_boundary_point_in_polygon,2906
node,417144153,bar,Sjælør Bodega,55.6497695,12.5288386,amenity,bar,Vesterbro-Kongens Enghave,Vesterbro-Kongens Enghave,0.0,official_boundary_point_in_polygon,2906
node,417180523,pub,Mozarts Bodega,55.6481432,12.5293861,amenity,pub,Vesterbro-Kongens Enghave,Vesterbro-Kongens Enghave,0.0,official_boundary_point_in_polygon,2906
node,428734579,pub,Café Halvvejen,55.6809434,12.5739275,amenity,pub,Indre By,Indre By,0.0,official_boundary_point_in_polygon,2906
node,428735193,bicycle_parking,,55.681389,12.5750693,amenity,bicycle_parking,Indre By,Indre By,0.0,official_boundary_point_in_polygon,2906
node,428735194,bicycle_parking,40,55.6816527,12.575973,amenity,bicycle_parking,Indre By,Indre By,0.0,official_boundary_point_in_polygon,2906
node,428735195,bicycle_parking,,55.680746,12.5726484,amenity,bicycle_parking,Indre By,Indre By,0.0,official_boundary_point_in_polygon,2906
node,429157021,bicycle_parking,,55.7051531,12.5621798,amenity,bicycle_parking,Nørrebro,Nørrebro,0.0,official_boundary_point_in_polygon,2906
node,429157023,bicycle_parking,,55.7044691,12.5619029,amenity,bicycle_parking,Nørrebro,Nørrebro,0.0,official_boundary_point_in_polygon,2906
node,430111607,toilets,,55.6581299,12.4783674,amenity,toilets,Valby,Valby,0.0,official_boundary_point_in_polygon,2906
node,430486590,bar,Bootleggers Vesterbro,55.6681772,12.5494792,amenity,bar,Vesterbro-Kongens Enghave,Vesterbro-Kongens Enghave,0.0,official_boundary_point_in_polygon,2906
node,442897766,bicycle_parking,,55.7048627,12.572924,amenity,bicycle_parking,Østerbro,Østerbro,0.0,official_boundary_point_in_polygon,2906
node,442897771,bicycle_parking,,55.704866,12.5755827,amenity,bicycle_parking,Østerbro,Østerbro,0.0,official_boundary_point_in_polygon,2906
node,442897960,bicycle_parking,,55.7015866,12.5589168,amenity,bicycle_parking,Nørrebro,Nørrebro,0.0,official_boundary_point_in_polygon,2906
node,442948295,bar,Ramblin' Bar,55.6632044,12.5421818,amenity,bar,Vesterbro-Kongens Enghave,Vesterbro-Kongens Enghave,0.0,official_boundary_point_in_polygon,2906
node,447811303,supermarket,Netto,55.6821226,12.5764493,shop,supermarket,Indre By,Indre By,0.0,official_boundary_point_in_polygon,2906
node,448276155,bar,Bodega Teglskægget,55.6696051,12.4918721,amenity,bar,Valby,Valby,0.0,official_boundary_point_in_polygon,2906
node,461099829,pharmacy,Enghave Apotek,55.6660639,12.5441119,amenity,pharmacy,Vesterbro-Kongens Enghave,Vesterbro-Kongens Enghave,0.0,official_boundary_point_in_polygon,2906
node,464260074,bench,,55.6734015,12.6066054,amenity,bench,Indre By,Indre By,0.0,official_boundary_point_in_polygon,2906
node,464260078,bench,,55.6733425,12.6066263,amenity,bench,Indre By,Indre By,0.0,official_boundary_point_in_polygon,2906
node,477281988,bicycle_parking,,55.6906926,12.4777716,amenity,bicycle_parking,Vanløse,Vanløse,0.0,official_boundary_point_in_polygon,2906
node,477438367,bicycle_parking,,55.6903753,12.5542069,amenity,bicycle_parking,Nørrebro,Nørrebro,0.0,official_boundary_point_in_polygon,2906
node,477441827,toilets,,55.6894759,12.5530889,amenity,toilets,Nørrebro,Nørrebro,0.0,official_boundary_point_in_polygon,2906
node,495440789,supermarket,Dagli'Brugsen Valby Vigerslevvej,55.661775,12.4833944,shop,supermarket,Valby,Valby,0.0,official_boundary_point_in_polygon,2906
node,496287667,pub,Mølle Cafeen,55.6653765,12.5171005,amenity,pub,Valby,Valby,0.0,official_boundary_point_in_polygon,2906
node,496297519,supermarket,Rema 1000 Valby,55.6673085,12.5166671,shop,supermarket,Valby,Valby,0.0,official_boundary_point_in_polygon,2906
node,496327670,pharmacy,Valby Apotek,55.6664634,12.5170883,amenity,pharmacy,Valby,Valby,0.0,official_boundary_point_in_polygon,2906
node,496327697,pub,Toftegårds Bodega,55.6652831,12.5164963,amenity,pub,Valby,Valby,0.0,official_boundary_point_in_polygon,2906
node,496564342,museum,Nyboder Mindestuer,55.6873712,12.5880529,tourism,museum,Indre By,Indre By,0.0,official_boundary_point_in_polygon,2906
node,497381654,supermarket,Kvickly,55.6645512,12.5114807,shop,supermarket,Valby,Valby,0.0,official_boundary_point_in_polygon,2906
node,497381655,bakery,Kvickly Bager,55.6646268,12.5114914,shop,bakery,Valby,Valby,0.0,official_boundary_point_in_polygon,2906
node,508048713,bicycle_parking,,55.6998398,12.5568367,amenity,bicycle_parking,Nørrebro,Nørrebro,0.0,official_boundary_point_in_polygon,2906
node,511004151,cafe,Charlottehaven,55.7053563,12.5883124,amenity,cafe,Østerbro,Østerbro,0.0,official_boundary_point_in_polygon,2906
node,512049155,restaurant,Romarin,55.6962411,12.5736203,amenity,restaurant,Østerbro,Østerbro,0.0,official_boundary_point_in_polygon,2906
node,514241071,supermarket,SuperBrugsen,55.685181,12.586612,shop,supermarket,Indre By,Indre By,0.0,official_boundary_point_in_polygon,2906
node,514241073,supermarket,Føtex,55.6835484,12.5868453,shop,supermarket,Indre By,Indre By,0.0,official_boundary_point_in_polygon,2906
node,514241075,supermarket,Føtex,55.6860948,12.5838521,shop,supermarket,Indre By,Indre By,0.0,official_boundary_point_in_polygon,2906
node,515718011,cafe,Kaffebaren Fiolstræde,55.6822824,12.5720569,amenity,cafe,Indre By,Indre By,0.0,official_boundary_point_in_polygon,2906
node,515718720,pub,Hvide Lam,55.6821362,12.574042,amenity,pub,Indre By,Indre By,0.0,official_boundary_point_in_polygon,2906
node,518794169,toilets,,55.6848551,12.5731619,amenity,toilets,Indre By,Indre By,0.0,official_boundary_point_in_polygon,2906
node,519533636,cafe,Espresso House - Rådhuspladsen,55.6758389,12.5673252,amenity,cafe,Indre By,Indre By,0.0,official_boundary_point_in_polygon,2906
node,523733378,restaurant,Nimb Brasserie,55.6735634,12.5666399,amenity,restaurant,Indre By,Indre By,0.0,official_boundary_point_in_polygon,2906
node,523734249,restaurant,Hard Rock Cafe,55.6766219,12.5690951,amenity,restaurant,Indre By,Indre By,0.0,official_boundary_point_in_polygon,2906
node,527908941,restaurant,Famo Carne,55.6743041,12.5503686,amenity,restaurant,Vesterbro-Kongens Enghave,Vesterbro-Kongens Enghave,0.0,official_boundary_point_in_polygon,2906
node,527912072,restaurant,Famo,55.6723741,12.5506713,amenity,restaurant,Vesterbro-Kongens Enghave,Vesterbro-Kongens Enghave,0.0,official_boundary_point_in_polygon,2906
node,530788431,supermarket,Bilka,55.6310777,12.5770018,shop,supermarket,Amager Vest,Amager Vest,0.0,official_boundary_point_in_polygon,2906
node,532495459,pharmacy,Amagerbro Apotek,55.6637848,12.6049012,amenity,pharmacy,Amager Øst,Amager Øst,0.0,official_boundary_point_in_polygon,2906
node,532495503,restaurant,Kareten,55.6647417,12.599422,amenity,restaurant,Amager Vest,Amager Vest,0.0,official_boundary_point_in_polygon,2906
node,532495555,supermarket,Føtex,55.6629421,12.6054451,shop,supermarket,Amager Øst,Amager Øst,0.0,official_boundary_point_in_polygon,2906
node,532495565,supermarket,365discount,55.6618793,12.6102958,shop,supermarket,Amager Øst,Amager Øst,0.0,official_boundary_point_in_polygon,2906
node,532495592,supermarket,Rema 1000 Øresundsvej,55.6595505,12.6100812,shop,supermarket,Amager Øst,Amager Øst,0.0,official_boundary_point_in_polygon,2906
node,543379764,supermarket,Rema 1000,55.6538258,12.5668579,shop,supermarket,Amager Vest,Amager Vest,0.0,official_boundary_point_in_polygon,2906
node,546471950,cafe,Cafe Staalvand,55.7039866,12.4975312,amenity,cafe,Brønshøj-Husum,Brønshøj-Husum,0.0,official_boundary_point_in_polygon,2906
node,552383335,bakery,Kirstens Konditori,55.7046958,12.5007032,shop,bakery,Brønshøj-Husum,Brønshøj-Husum,0.0,official_boundary_point_in_polygon,2906
node,552383377,pub,Gerts vinstue,55.7048784,12.4974247,amenity,pub,Brønshøj-Husum,Brønshøj-Husum,0.0,official_boundary_point_in_polygon,2906
node,552383384,pub,Vi ses hos Berg,55.7049562,12.4969562,amenity,pub,Brønshøj-Husum,Brønshøj-Husum,0.0,official_boundary_point_in_polygon,2906
node,552389831,restaurant,La Buca degli Artisti,55.6932938,12.5117591,amenity,restaurant,Vanløse,Vanløse,0.0,official_boundary_point_in_polygon,2906
node,560942642,bicycle_parking,,55.6809251,12.5736803,amenity,bicycle_parking,Indre By,Indre By,0.0,official_boundary_point_in_polygon,2906
node,560942644,bakery,Lagkagehuset,55.6829634,12.573528,shop,bakery,Indre By,Indre By,0.0,official_boundary_point_in_polygon,2906
node,566168627,bench,,55.6523534,12.5803165,amenity,bench,Amager Vest,Amager Vest,0.0,official_boundary_point_in_polygon,2906
node,567867795,restaurant,Spiseloppen,55.6739921,12.5972675,amenity,restaurant,Indre By,Indre By,0.0,official_boundary_point_in_polygon,2906
node,567867798,nightclub,Loppen,55.6740214,12.5973242,amenity,nightclub,Indre By,Indre By,0.0,official_boundary_point_in_polygon,2906
node,567867801,supermarket,Brugsen,55.6752064,12.5971912,shop,supermarket,Indre By,Indre By,0.0,official_boundary_point_in_polygon,2906
node,571267064,bar,Snoopy Bodega,55.6826112,12.4914551,amenity,bar,Vanløse,Vanløse,0.0,official_boundary_point_in_polygon,2906
node,571774093,supermarket,Netto,55.6693343,12.540283,shop,supermarket,Vesterbro-Kongens Enghave,Vesterbro-Kongens Enghave,0.0,official_boundary_point_in_polygon,2906
node,572760407,supermarket,365discount,55.6888531,12.4889367,shop,supermarket,Vanløse,Vanløse,0.0,official_boundary_point_in_polygon,2906
node,572760707,bicycle_parking,,55.6871413,12.4909024,amenity,bicycle_parking,Vanløse,Vanløse,0.0,official_boundary_point_in_polygon,2906
node,573418986,restaurant,Morgenstedet,55.6737546,12.6031876,amenity,restaurant,Indre By,Indre By,0.0,official_boundary_point_in_polygon,2906
node,581175105,toilets,,55.6842882,12.5694343,amenity,toilets,Indre By,Indre By,0.0,official_boundary_point_in_polygon,2906
node,583002819,bench,,55.6794612,12.4900335,amenity,bench,Vanløse,Vanløse,0.0,official_boundary_point_in_polygon,2906
node,583002820,bench,,55.6800737,12.4905055,amenity,bench,Vanløse,Vanløse,0.0,official_boundary_point_in_polygon,2906
node,583002821,bench,,55.6809668,12.4909684,amenity,bench,Vanløse,Vanløse,0.0,official_boundary_point_in_polygon,2906
node,583002822,bench,,55.6818627,12.4916857,amenity,bench,Vanløse,Vanløse,0.0,official_boundary_point_in_polygon,2906
node,583002823,bench,,55.6833522,12.4932732,amenity,bench,Vanløse,Vanløse,0.0,official_boundary_point_in_polygon,2906
node,583002824,bench,,55.6833779,12.493303,amenity,bench,Vanløse,Vanløse,0.0,official_boundary_point_in_polygon,2906
node,583002825,bench,,55.6838699,12.4939405,amenity,bench,Vanløse,Vanløse,0.0,official_boundary_point_in_polygon,2906
node,588481080,bicycle_parking,,55.6625397,12.5614937,amenity,bicycle_parking,Vesterbro-Kongens Enghave,Vesterbro-Kongens Enghave,0.0,official_boundary_point_in_polygon,2906
node,595777269,bench,,55.6829106,12.4922356,amenity,bench,Vanløse,Vanløse,0.0,official_boundary_point_in_polygon,2906
node,601058250,bench,,55.6257704,12.550484,amenity,bench,Amager Vest,Amager Vest,0.0,official_boundary_point_in_polygon,2906
node,601123937,bench,,55.6171456,12.5626791,amenity,bench,Amager Vest,Amager Vest,0.0,official_boundary_point_in_polygon,2906
node,612519188,bakery,Bager Bosse,55.7060293,12.5777131,shop,bakery,Østerbro,Østerbro,0.0,official_boundary_point_in_polygon,2906
node,612546725,restaurant,Iki Sushi,55.7021553,12.5827876,amenity,restaurant,Østerbro,Østerbro,0.0,official_boundary_point_in_polygon,2906
node,618161164,library,Islands Brygge Bibliotek,55.6664321,12.5793994,amenity,library,Amager Vest,Amager Vest,0.0,official_boundary_point_in_polygon,2906
node,618161997,toilets,,55.7129497,12.5602467,amenity,toilets,Østerbro,Østerbro,0.0,official_boundary_point_in_polygon,2906
node,618841419,bicycle_parking,,55.6393579,12.5846341,amenity,bicycle_parking,Amager Vest,Amager Vest,0.0,official_boundary_point_in_polygon,2906
node,618841420,bicycle_parking,,55.6292169,12.5794698,amenity,bicycle_parking,Amager Vest,Amager Vest,0.0,official_boundary_point_in_polygon,2906
node,618841421,bicycle_parking,,55.6313284,12.5767594,amenity,bicycle_parking,Amager Vest,Amager Vest,0.0,official_boundary_point_in_polygon,2906
node,618841422,bicycle_parking,,55.6379049,12.5828172,amenity,bicycle_parking,Amager Vest,Amager Vest,0.0,official_boundary_point_in_polygon,2906
node,618841423,bicycle_parking,,55.6450403,12.5856438,amenity,bicycle_parking,Amager Vest,Amager Vest,0.0,official_boundary_point_in_polygon,2906
node,618843695,bicycle_parking,,55.6627219,12.6037813,amenity,bicycle_parking,Amager Øst,Amager Øst,0.0,official_boundary_point_in_polygon,2906
node,618843706,bicycle_parking,,55.6635722,12.6021827,amenity,bicycle_parking,Amager Øst,Amager Øst,0.0,official_boundary_point_in_polygon,2906
node,618843710,library,Sundby Bibliotek,55.6652546,12.604231,amenity,library,Amager Øst,Amager Øst,0.0,official_boundary_point_in_polygon,2906
node,618843713,bicycle_parking,,55.6651304,12.6043322,amenity,bicycle_parking,Amager Øst,Amager Øst,0.0,official_boundary_point_in_polygon,2906
node,618843721,bicycle_parking,,55.6557225,12.5890329,amenity,bicycle_parking,Amager Vest,Amager Vest,0.0,official_boundary_point_in_polygon,2906
node,618844310,bicycle_parking,,55.6722296,12.5910258,amenity,bicycle_parking,Indre By,Indre By,0.0,official_boundary_point_in_polygon,2906
node,618847097,bicycle_parking,,55.6765105,12.5691583,amenity,bicycle_parking,Indre By,Indre By,0.0,official_boundary_point_in_polygon,2906
node,618847104,bicycle_parking,,55.6753063,12.5669861,amenity,bicycle_parking,Indre By,Indre By,0.0,official_boundary_point_in_polygon,2906
node,618847105,bicycle_parking,,55.6736415,12.5715056,amenity,bicycle_parking,Indre By,Indre By,0.0,official_boundary_point_in_polygon,2906
node,618849652,bicycle_parking,,55.6761802,12.56374,amenity,bicycle_parking,Indre By,Indre By,0.0,official_boundary_point_in_polygon,2906
node,624518502,restaurant,Kiin Kiin,55.6918479,12.5573009,amenity,restaurant,Nørrebro,Nørrebro,0.0,official_boundary_point_in_polygon,2906
node,648987105,cafe,Siciliansk Is,55.6691686,12.5542314,amenity,cafe,Vesterbro-Kongens Enghave,Vesterbro-Kongens Enghave,0.0,official_boundary_point_in_polygon,2906
node,648988838,cafe,Sort Kaffe og Vinyl,55.6690548,12.5539577,amenity,cafe,Vesterbro-Kongens Enghave,Vesterbro-Kongens Enghave,0.0,official_boundary_point_in_polygon,2906
node,664252429,bar,Karrusellen,55.6979488,12.5449768,amenity,bar,Nørrebro,Nørrebro,0.0,official_boundary_point_in_polygon,2906
node,664252430,bar,Café Ægir,55.69858,12.545621,amenity,bar,Nørrebro,Nørrebro,0.0,official_boundary_point_in_polygon,2906
node,664252431,bar,Det Gamle Sted,55.6999384,12.5467477,amenity,bar,Nørrebro,Nørrebro,0.0,official_boundary_point_in_polygon,2906
node,664252432,bar,Café Lille Peter,55.6957863,12.5439384,amenity,bar,Nørrebro,Nørrebro,0.0,official_boundary_point_in_polygon,2906
node,672699435,supermarket,Føtex,55.6616576,12.5599029,shop,supermarket,Vesterbro-Kongens Enghave,Vesterbro-Kongens Enghave,0.0,official_boundary_point_in_polygon,2906
node,672726761,restaurant,La Neta,55.6692157,12.5530946,amenity,restaurant,Vesterbro-Kongens Enghave,Vesterbro-Kongens Enghave,0.0,official_boundary_point_in_polygon,2906
node,674047419,bar,Fermentoren,55.6679147,12.5563801,amenity,bar,Vesterbro-Kongens Enghave,Vesterbro-Kongens Enghave,0.0,official_boundary_point_in_polygon,2906
node,674777891,bar,Bar 33 Vesterbro,55.6660602,12.5535057,amenity,bar,Vesterbro-Kongens Enghave,Vesterbro-Kongens Enghave,0.0,official_boundary_point_in_polygon,2906
node,674787360,bar,Café Snork,55.667143,12.5479089,amenity,bar,Vesterbro-Kongens Enghave,Vesterbro-Kongens Enghave,0.0,official_boundary_point_in_polygon,2906
node,674801748,nightclub,Ideal bar,55.6677986,12.5441914,amenity,nightclub,Vesterbro-Kongens Enghave,Vesterbro-Kongens Enghave,0.0,official_boundary_point_in_polygon,2906
node,674806668,supermarket,SuperBrugsen,55.6697372,12.5457398,shop,supermarket,Vesterbro-Kongens Enghave,Vesterbro-Kongens Enghave,0.0,official_boundary_point_in_polygon,2906
node,674852970,bar,Café 42,55.6672208,12.553453,amenity,bar,Vesterbro-Kongens Enghave,Vesterbro-Kongens Enghave,0.0,official_boundary_point_in_polygon,2906
node,675714363,toilets,,55.6613814,12.5614725,amenity,toilets,Vesterbro-Kongens Enghave,Vesterbro-Kongens Enghave,0.0,official_boundary_point_in_polygon,2906
node,676006224,cafe,Café Sonja,55.6682341,12.5511083,amenity,cafe,Vesterbro-Kongens Enghave,Vesterbro-Kongens Enghave,0.0,official_boundary_point_in_polygon,2906
node,676009938,bar,Mc Kluud,55.6683619,12.5501454,amenity,bar,Vesterbro-Kongens Enghave,Vesterbro-Kongens Enghave,0.0,official_boundary_point_in_polygon,2906
node,677512543,supermarket,Netto,55.6601982,12.5727309,shop,supermarket,Amager Vest,Amager Vest,0.0,official_boundary_point_in_polygon,2906
node,677531067,restaurant,Je t’aime,55.6653161,12.5576571,amenity,restaurant,Vesterbro-Kongens Enghave,Vesterbro-Kongens Enghave,0.0,official_boundary_point_in_polygon,2906
node,679011950,restaurant,Mae Pen,55.6969787,12.5458449,amenity,restaurant,Nørrebro,Nørrebro,0.0,official_boundary_point_in_polygon,2906
node,679303737,toilets,,55.6950196,12.54281,amenity,toilets,Nørrebro,Nørrebro,0.0,official_boundary_point_in_polygon,2906
node,679306027,pub,Cafeen Funke,55.6908003,12.5614037,amenity,pub,Nørrebro,Nørrebro,0.0,official_boundary_point_in_polygon,2906
node,683136818,cafe,Café Sweet Surrender,55.666574,12.5502824,amenity,cafe,Vesterbro-Kongens Enghave,Vesterbro-Kongens Enghave,0.0,official_boundary_point_in_polygon,2906
node,683138832,cafe,Riccos,55.6675122,12.5481394,amenity,cafe,Vesterbro-Kongens Enghave,Vesterbro-Kongens Enghave,0.0,official_boundary_point_in_polygon,2906
node,683141422,bar,Riesen,55.6692729,12.5496981,amenity,bar,Vesterbro-Kongens Enghave,Vesterbro-Kongens Enghave,0.0,official_boundary_point_in_polygon,2906
node,683192044,pub,Café Grotten,55.6675503,12.5553934,amenity,pub,Vesterbro-Kongens Enghave,Vesterbro-Kongens Enghave,0.0,official_boundary_point_in_polygon,2906
node,687303281,museum,Ripley's Believe It or Not,55.6763244,12.5699496,tourism,museum,Indre By,Indre By,0.0,official_boundary_point_in_polygon,2906
node,687312669,bar,Cafè Guldhornene,55.6772854,12.5693007,amenity,bar,Indre By,Indre By,0.0,official_boundary_point_in_polygon,2906
node,687313455,bar,Heidi's Bier Bar,55.6773855,12.5694568,amenity,bar,Indre By,Indre By,0.0,official_boundary_point_in_polygon,2906
node,687314560,bar,The Australien Bar,55.6779133,12.5705635,amenity,bar,Indre By,Indre By,0.0,official_boundary_point_in_polygon,2906
node,687314916,bar,La Boucherie,55.6779717,12.5707085,amenity,bar,Indre By,Indre By,0.0,official_boundary_point_in_polygon,2906
node,687796690,bar,Trykbar,55.6822933,12.5804369,amenity,bar,Indre By,Indre By,0.0,official_boundary_point_in_polygon,2906
node,687927914,toilets,,55.6798085,12.5912168,amenity,toilets,Indre By,Indre By,0.0,official_boundary_point_in_polygon,2906
node,693235571,supermarket,"Rema 1000 København V, Rejsbygade",55.6687623,12.543338,shop,supermarket,Vesterbro-Kongens Enghave,Vesterbro-Kongens Enghave,0.0,official_boundary_point_in_polygon,2906
node,698514092,pub,City Pub,55.6730196,12.5597708,amenity,pub,Vesterbro-Kongens Enghave,Vesterbro-Kongens Enghave,0.0,official_boundary_point_in_polygon,2906
node,698796999,bar,St. Pauli Minibar,55.668674,12.5565742,amenity,bar,Vesterbro-Kongens Enghave,Vesterbro-Kongens Enghave,0.0,official_boundary_point_in_polygon,2906
node,698800833,bar,Freddys Bar,55.6696351,12.5582526,amenity,bar,Vesterbro-Kongens Enghave,Vesterbro-Kongens Enghave,0.0,official_boundary_point_in_polygon,2906
node,698801245,bar,Tove,55.6701566,12.5580817,amenity,bar,Vesterbro-Kongens Enghave,Vesterbro-Kongens Enghave,0.0,official_boundary_point_in_polygon,2906
node,705920327,cafe,Gavlen,55.6898768,12.5634116,amenity,cafe,Nørrebro,Nørrebro,0.0,official_boundary_point_in_polygon,2906
node,705923959,nightclub,Rust,55.6912247,12.559252,amenity,nightclub,Nørrebro,Nørrebro,0.0,official_boundary_point_in_polygon,2906
node,706670438,restaurant,Scarpetta,55.6854535,12.5522738,amenity,restaurant,Nørrebro,Nørrebro,0.0,official_boundary_point_in_polygon,2906
node,709104219,supermarket,SuperBrugsen,55.6719051,12.5912305,shop,supermarket,Indre By,Indre By,0.0,official_boundary_point_in_polygon,2906
node,709213873,restaurant,Ravelinen,55.6703637,12.5957099,amenity,restaurant,Indre By,Indre By,0.0,official_boundary_point_in_polygon,2906
node,727411650,bar,Märkbar,55.6717251,12.5458974,amenity,bar,Vesterbro-Kongens Enghave,Vesterbro-Kongens Enghave,0.0,official_boundary_point_in_polygon,2906
node,727436488,bar,Jernbanecafeen,55.6721637,12.5636709,amenity,bar,Vesterbro-Kongens Enghave,Vesterbro-Kongens Enghave,0.0,official_boundary_point_in_polygon,2906
node,727441226,supermarket,Netto,55.6697942,12.5472998,shop,supermarket,Vesterbro-Kongens Enghave,Vesterbro-Kongens Enghave,0.0,official_boundary_point_in_polygon,2906
node,727708770,restaurant,Asador,55.6723928,12.5900587,amenity,restaurant,Indre By,Indre By,0.0,official_boundary_point_in_polygon,2906
node,727708793,cafe,Sofiekælderen,55.6716209,12.5899698,amenity,cafe,Indre By,Indre By,0.0,official_boundary_point_in_polygon,2906
node,727708821,pub,Kanal Bodega,55.6719928,12.5905788,amenity,pub,Indre By,Indre By,0.0,official_boundary_point_in_polygon,2906
node,727708837,pub,Kafe Falken,55.6711746,12.5924079,amenity,pub,Indre By,Indre By,0.0,official_boundary_point_in_polygon,2906
node,727823993,pharmacy,Christianshavns Apotek,55.6722489,12.5920615,amenity,pharmacy,Indre By,Indre By,0.0,official_boundary_point_in_polygon,2906
node,727823995,cafe,Cafe Rabes Have,55.6701414,12.5862015,amenity,cafe,Indre By,Indre By,0.0,official_boundary_point_in_polygon,2906
node,729601933,cafe,Christianshavns Beboerhus,55.671257,12.5909995,amenity,cafe,Indre By,Indre By,0.0,official_boundary_point_in_polygon,2906
node,732619324,toilets,,55.6727918,12.5638227,amenity,toilets,Vesterbro-Kongens Enghave,Vesterbro-Kongens Enghave,0.0,official_boundary_point_in_polygon,2906
node,733779556,restaurant,Cofoco,55.6718039,12.5583805,amenity,restaurant,Vesterbro-Kongens Enghave,Vesterbro-Kongens Enghave,0.0,official_boundary_point_in_polygon,2906
node,733791085,restaurant,Les trois cochons,55.6737032,12.550029,amenity,restaurant,Vesterbro-Kongens Enghave,Vesterbro-Kongens Enghave,0.0,official_boundary_point_in_polygon,2906
node,733806482,restaurant,Vespa,55.6857251,12.5890942,amenity,restaurant,Indre By,Indre By,0.0,official_boundary_point_in_polygon,2906
node,733807422,restaurant,Tony's,55.6780986,12.5917974,amenity,restaurant,Indre By,Indre By,0.0,official_boundary_point_in_polygon,2906
node,733808221,restaurant,Madklubben Bistro de luxe,55.684161,12.5877522,amenity,restaurant,Indre By,Indre By,0.0,official_boundary_point_in_polygon,2906
node,733810536,restaurant,MASH Steakhouse Bredgade,55.6817859,12.5883393,amenity,restaurant,Indre By,Indre By,0.0,official_boundary_point_in_polygon,2906
node,733983629,supermarket,Netto,55.7085218,12.5573553,shop,supermarket,Østerbro,Østerbro,0.0,official_boundary_point_in_polygon,2906
node,734870384,bar,Grusgraven,55.6708206,12.546286,amenity,bar,Vesterbro-Kongens Enghave,Vesterbro-Kongens Enghave,0.0,official_boundary_point_in_polygon,2906
node,734882638,cafe,Café Dyrehaven,55.6656274,12.5495946,amenity,cafe,Vesterbro-Kongens Enghave,Vesterbro-Kongens Enghave,0.0,official_boundary_point_in_polygon,2906
node,735030034,pub,Larsen's Plaz,55.6740877,12.5513488,amenity,pub,Vesterbro-Kongens Enghave,Vesterbro-Kongens Enghave,0.0,official_boundary_point_in_polygon,2906
node,735030035,cafe,Central Hotel & Cafe,55.6739396,12.5515186,amenity,cafe,Vesterbro-Kongens Enghave,Vesterbro-Kongens Enghave,0.0,official_boundary_point_in_polygon,2906
node,736442037,bakery,Brødkunsten,55.6977348,12.5529712,shop,bakery,Nørrebro,Nørrebro,0.0,official_boundary_point_in_polygon,2906
node,736442052,pharmacy,Sankt Stefans Apotek,55.69468,12.5489643,amenity,pharmacy,Nørrebro,Nørrebro,0.0,official_boundary_point_in_polygon,2906
node,736564703,pub,Skippers Bodega,55.6696331,12.5544432,amenity,pub,Vesterbro-Kongens Enghave,Vesterbro-Kongens Enghave,0.0,official_boundary_point_in_polygon,2906
node,737887225,pub,Café Erik,55.6688571,12.5487739,amenity,pub,Vesterbro-Kongens Enghave,Vesterbro-Kongens Enghave,0.0,official_boundary_point_in_polygon,2906
node,738164312,bar,Holstein Bodega,55.6987309,12.5812029,amenity,bar,Østerbro,Østerbro,0.0,official_boundary_point_in_polygon,2906
node,738164607,restaurant,Taormina,55.6985159,12.5811113,amenity,restaurant,Østerbro,Østerbro,0.0,official_boundary_point_in_polygon,2906
node,738821350,bar,Café Ludwigsen,55.6709507,12.5436884,amenity,bar,Vesterbro-Kongens Enghave,Vesterbro-Kongens Enghave,0.0,official_boundary_point_in_polygon,2906
node,738986844,museum,Dansk Jødisk Museum,55.6743653,12.5823025,tourism,museum,Indre By,Indre By,0.0,official_boundary_point_in_polygon,2906
node,745576449,bar,Cafe Bryggeriet,55.6654768,12.5388859,amenity,bar,Vesterbro-Kongens Enghave,Vesterbro-Kongens Enghave,0.0,official_boundary_point_in_polygon,2906
node,746248896,restaurant,Ponte Vecchio,55.6656284,12.5754894,amenity,restaurant,Amager Vest,Amager Vest,0.0,official_boundary_point_in_polygon,2906
node,746251105,bar,Café Haraldsborg,55.6675771,12.5780731,amenity,bar,Amager Vest,Amager Vest,0.0,official_boundary_point_in_polygon,2906
node,746251544,bar,Isbjørnen,55.6678361,12.5785286,amenity,bar,Amager Vest,Amager Vest,0.0,official_boundary_point_in_polygon,2906
node,746302702,bar,Det Lille Øresund,55.6690764,12.5500661,amenity,bar,Vesterbro-Kongens Enghave,Vesterbro-Kongens Enghave,0.0,official_boundary_point_in_polygon,2906
node,746302708,cafe,Mad & Kaffe,55.6659203,12.5503827,amenity,cafe,Vesterbro-Kongens Enghave,Vesterbro-Kongens Enghave,0.0,official_boundary_point_in_polygon,2906
node,750556536,bicycle_parking,,55.6652359,12.5666997,amenity,bicycle_parking,Vesterbro-Kongens Enghave,Vesterbro-Kongens Enghave,0.0,official_boundary_point_in_polygon,2906
node,762555539,pharmacy,Vaisenhus Apotek,55.681653,12.575572,amenity,pharmacy,Indre By,Indre By,0.0,official_boundary_point_in_polygon,2906
node,765058500,bicycle_parking,,55.6692049,12.5529757,amenity,bicycle_parking,Vesterbro-Kongens Enghave,Vesterbro-Kongens Enghave,0.0,official_boundary_point_in_polygon,2906
node,765058501,bicycle_parking,,55.6689768,12.5529976,amenity,bicycle_parking,Vesterbro-Kongens Enghave,Vesterbro-Kongens Enghave,0.0,official_boundary_point_in_polygon,2906
node,765058702,bicycle_parking,,55.6672272,12.5546024,amenity,bicycle_parking,Vesterbro-Kongens Enghave,Vesterbro-Kongens Enghave,0.0,official_boundary_point_in_polygon,2906
node,765059425,bicycle_parking,,55.6674079,12.5610369,amenity,bicycle_parking,Vesterbro-Kongens Enghave,Vesterbro-Kongens Enghave,0.0,official_boundary_point_in_polygon,2906
node,765059429,bicycle_parking,,55.6677549,12.5582387,amenity,bicycle_parking,Vesterbro-Kongens Enghave,Vesterbro-Kongens Enghave,0.0,official_boundary_point_in_polygon,2906
node,765066607,bicycle_parking,,55.670751,12.5620776,amenity,bicycle_parking,Vesterbro-Kongens Enghave,Vesterbro-Kongens Enghave,0.0,official_boundary_point_in_polygon,2906
node,765460054,toilets,,55.6820601,12.5836815,amenity,toilets,Indre By,Indre By,0.0,official_boundary_point_in_polygon,2906
node,765460098,toilets,,55.6780957,12.5716619,amenity,toilets,Indre By,Indre By,0.0,official_boundary_point_in_polygon,2906
node,767408825,toilets,Nyhavn,55.6806529,12.5878585,amenity,toilets,Indre By,Indre By,0.0,official_boundary_point_in_polygon,2906
node,775588050,supermarket,"Rema 1000 København S, Kastrupvej",55.6487799,12.6217809,shop,supermarket,Amager Øst,Amager Øst,0.0,official_boundary_point_in_polygon,2906
node,779423089,bicycle_parking,,55.6727272,12.5510216,amenity,bicycle_parking,Vesterbro-Kongens Enghave,Vesterbro-Kongens Enghave,0.0,official_boundary_point_in_polygon,2906
node,780177268,supermarket,365discount,55.6667108,12.6153712,shop,supermarket,Amager Øst,Amager Øst,0.0,official_boundary_point_in_polygon,2906
node,780177307,supermarket,Netto,55.6651131,12.6097924,shop,supermarket,Amager Øst,Amager Øst,0.0,official_boundary_point_in_polygon,2906
node,782776087,bicycle_parking,,55.6721516,12.554782,amenity,bicycle_parking,Vesterbro-Kongens Enghave,Vesterbro-Kongens Enghave,0.0,official_boundary_point_in_polygon,2906
node,796758775,supermarket,Netto,55.659613,12.6190902,shop,supermarket,Amager Øst,Amager Øst,0.0,official_boundary_point_in_polygon,2906
node,796779198,library,Bibliotekshuset,55.6503429,12.6130753,amenity,library,Amager Øst,Amager Øst,0.0,official_boundary_point_in_polygon,2906
node,801962565,supermarket,Lidl,55.6585785,12.6070529,shop,supermarket,Amager Vest,Amager Vest,0.0,official_boundary_point_in_polygon,2906
node,801975134,supermarket,Rema 1000 Amagerbrogade,55.6405072,12.6174491,shop,supermarket,Amager Øst,Amager Øst,0.0,official_boundary_point_in_polygon,2906
node,807644937,supermarket,MENY Amager,55.6686776,12.6075277,shop,supermarket,Amager Øst,Amager Øst,0.0,official_boundary_point_in_polygon,2906
node,807652539,bicycle_parking,,55.6289711,12.5793509,amenity,bicycle_parking,Amager Vest,Amager Vest,0.0,official_boundary_point_in_polygon,2906
node,812872366,toilets,,55.7195634,12.5830159,amenity,toilets,Østerbro,Østerbro,0.0,official_boundary_point_in_polygon,2906
node,818683303,pub,Ørsted Ølbar & Cafe,55.6812668,12.5645148,amenity,pub,Indre By,Indre By,0.0,official_boundary_point_in_polygon,2906
node,818898743,bar,Mikkeller Bar Viktoriagade,55.6719575,12.5575483,amenity,bar,Vesterbro-Kongens Enghave,Vesterbro-Kongens Enghave,0.0,official_boundary_point_in_polygon,2906
node,839839590,bicycle_parking,,55.6698723,12.5530313,amenity,bicycle_parking,Vesterbro-Kongens Enghave,Vesterbro-Kongens Enghave,0.0,official_boundary_point_in_polygon,2906
node,839839593,bicycle_parking,,55.6698477,12.5525968,amenity,bicycle_parking,Vesterbro-Kongens Enghave,Vesterbro-Kongens Enghave,0.0,official_boundary_point_in_polygon,2906
node,845290903,supermarket,Netto,55.6837826,12.587007,shop,supermarket,Indre By,Indre By,0.0,official_boundary_point_in_polygon,2906
node,861265501,bakery,Bagerdygtigt Enghave,55.664042,12.5425786,shop,bakery,Vesterbro-Kongens Enghave,Vesterbro-Kongens Enghave,0.0,official_boundary_point_in_polygon,2906
node,861271145,bicycle_parking,,55.6636955,12.5418859,amenity,bicycle_parking,Vesterbro-Kongens Enghave,Vesterbro-Kongens Enghave,0.0,official_boundary_point_in_polygon,2906
node,861271148,pub,Cafe Hytten,55.6633027,12.5420331,amenity,pub,Vesterbro-Kongens Enghave,Vesterbro-Kongens Enghave,0.0,official_boundary_point_in_polygon,2906
node,870260227,bakery,Emmerys,55.6577877,12.5671729,shop,bakery,Amager Vest,Amager Vest,0.0,official_boundary_point_in_polygon,2906
node,870361950,restaurant,Hatoba,55.6684525,12.5792029,amenity,restaurant,Amager Vest,Amager Vest,0.0,official_boundary_point_in_polygon,2906
node,870440497,bar,Kennedys Irish Bar,55.6736923,12.5560021,amenity,bar,Vesterbro-Kongens Enghave,Vesterbro-Kongens Enghave,0.0,official_boundary_point_in_polygon,2906
node,872697609,restaurant,Sticks'n'Sushi,55.6905436,12.5755799,amenity,restaurant,Indre By,Indre By,0.0,official_boundary_point_in_polygon,2906
node,875940006,toilets,,55.6677834,12.541064,amenity,toilets,Vesterbro-Kongens Enghave,Vesterbro-Kongens Enghave,0.0,official_boundary_point_in_polygon,2906
node,885844996,supermarket,Inco,55.6668998,12.5599965,shop,supermarket,Vesterbro-Kongens Enghave,Vesterbro-Kongens Enghave,0.0,official_boundary_point_in_polygon,2906
node,888305518,restaurant,Restaurant Shezan,55.6709081,12.5585764,amenity,restaurant,Vesterbro-Kongens Enghave,Vesterbro-Kongens Enghave,0.0,official_boundary_point_in_polygon,2906
node,888340138,bar,Cube,55.673194,12.5612145,amenity,bar,Vesterbro-Kongens Enghave,Vesterbro-Kongens Enghave,0.0,official_boundary_point_in_polygon,2906
node,891910787,bakery,Brød,55.6668732,12.5468939,shop,bakery,Vesterbro-Kongens Enghave,Vesterbro-Kongens Enghave,0.0,official_boundary_point_in_polygon,2906
node,893928981,cafe,Kaffe Plantagen,55.667297,12.5477577,amenity,cafe,Vesterbro-Kongens Enghave,Vesterbro-Kongens Enghave,0.0,official_boundary_point_in_polygon,2906
node,893929266,cafe,Stempel,55.6673953,12.5477771,amenity,cafe,Vesterbro-Kongens Enghave,Vesterbro-Kongens Enghave,0.0,official_boundary_point_in_polygon,2906
node,893937150,bakery,Bagerdygtigt,55.6685675,12.5508356,shop,bakery,Vesterbro-Kongens Enghave,Vesterbro-Kongens Enghave,0.0,official_boundary_point_in_polygon,2906
node,893958239,bakery,Lagkagehuset,55.6749061,12.5645113,shop,bakery,Indre By,Indre By,0.0,official_boundary_point_in_polygon,2906
node,893959430,bar,Axelborg Bodega,55.6754287,12.5644398,amenity,bar,Indre By,Indre By,0.0,official_boundary_point_in_polygon,2906
node,893959502,toilets,,55.675876,12.5645675,amenity,toilets,Indre By,Indre By,0.0,official_boundary_point_in_polygon,2906
node,893968357,cafe,Oscar,55.6757728,12.5715987,amenity,cafe,Indre By,Indre By,0.0,official_boundary_point_in_polygon,2906
node,893968817,bar,Villa Vino,55.6764611,12.5713541,amenity,bar,Indre By,Indre By,0.0,official_boundary_point_in_polygon,2906
node,893969832,restaurant,Domhusets Smørrebrød,55.6767843,12.5720495,amenity,restaurant,Indre By,Indre By,0.0,official_boundary_point_in_polygon,2906
node,893993391,bar,K Cocktailbar,55.6779554,12.5807439,amenity,bar,Indre By,Indre By,0.0,official_boundary_point_in_polygon,2906
node,894000001,cafe,Espresso House,55.6787126,12.580055,amenity,cafe,Indre By,Indre By,0.0,official_boundary_point_in_polygon,2906
node,894199789,restaurant,Nyhavn 17,55.6805239,12.5891305,amenity,restaurant,Indre By,Indre By,0.0,official_boundary_point_in_polygon,2906
node,894212149,restaurant,Told & snaps,55.6799914,12.5917501,amenity,restaurant,Indre By,Indre By,0.0,official_boundary_point_in_polygon,2906
node,894227347,bar,Café Mønten,55.6789623,12.5910624,amenity,bar,Indre By,Indre By,0.0,official_boundary_point_in_polygon,2906
node,894229233,cafe,Holberg No 19,55.678725,12.5904021,amenity,cafe,Indre By,Indre By,0.0,official_boundary_point_in_polygon,2906
node,894234116,restaurant,La Sirène,55.67981,12.5918566,amenity,restaurant,Indre By,Indre By,0.0,official_boundary_point_in_polygon,2906
node,894309869,cafe,Café Oscar,55.6853951,12.5913921,amenity,cafe,Indre By,Indre By,0.0,official_boundary_point_in_polygon,2906
node,894315602,museum,Medicinsk Museion,55.6859579,12.5918956,tourism,museum,Indre By,Indre By,0.0,official_boundary_point_in_polygon,2906
node,894328164,restaurant,Café Petersborg,55.6873553,12.5929855,amenity,restaurant,Indre By,Indre By,0.0,official_boundary_point_in_polygon,2906
node,894340379,restaurant,Bistro Boheme,55.6873169,12.5912553,amenity,restaurant,Indre By,Indre By,0.0,official_boundary_point_in_polygon,2906
node,894343689,cafe,Toldbod Bodega,55.6872437,12.5907062,amenity,cafe,Indre By,Indre By,0.0,official_boundary_point_in_polygon,2906
node,894351723,bakery,Emmerys,55.6868763,12.5897302,shop,bakery,Indre By,Indre By,0.0,official_boundary_point_in_polygon,2906
node,894402369,cafe,Democratic Coffee,55.680835,12.573416,amenity,cafe,Indre By,Indre By,0.0,official_boundary_point_in_polygon,2906
node,894404556,cafe,Café Paludan,55.6803897,12.5732256,amenity,cafe,Indre By,Indre By,0.0,official_boundary_point_in_polygon,2906
node,894414596,toilets,,55.6775685,12.5726727,amenity,toilets,Indre By,Indre By,0.0,official_boundary_point_in_polygon,2906
node,894422707,bakery,Lagkagehuset,55.6768888,12.570489,shop,bakery,Indre By,Indre By,0.0,official_boundary_point_in_polygon,2906
node,895769852,restaurant,Bryggeriet Apollo,55.6748243,12.5661037,amenity,restaurant,Indre By,Indre By,0.0,official_boundary_point_in_polygon,2906
node,895776321,pub,The Old Irish Pub Vesterbrogade,55.6754762,12.5662861,amenity,pub,Indre By,Indre By,0.0,official_boundary_point_in_polygon,2906
node,895777978,pub,The Old English Pub,55.6755287,12.5664591,amenity,pub,Indre By,Indre By,0.0,official_boundary_point_in_polygon,2906
node,895874662,bar,Cafe Aalholm Bodega,55.672321,12.4883495,amenity,bar,Valby,Valby,0.0,official_boundary_point_in_polygon,2906
node,898917987,nightclub,Den Røde Baron,55.6822504,12.5853881,amenity,nightclub,Indre By,Indre By,0.0,official_boundary_point_in_polygon,2906
node,898920410,bar,Natcafeen,55.6815566,12.5842922,amenity,bar,Indre By,Indre By,0.0,official_boundary_point_in_polygon,2906
node,898920753,nightclub,Duke,55.6816072,12.5841215,amenity,nightclub,Indre By,Indre By,0.0,official_boundary_point_in_polygon,2906
node,898924504,restaurant,Restaurant Grønnegade,55.6816089,12.5832999,amenity,restaurant,Indre By,Indre By,0.0,official_boundary_point_in_polygon,2906
node,898927641,cafe,The Coffee Factory,55.6818906,12.5832644,amenity,cafe,Indre By,Indre By,0.0,official_boundary_point_in_polygon,2906
node,898930207,bar,Andy's Bar,55.6821592,12.5822351,amenity,bar,Indre By,Indre By,0.0,official_boundary_point_in_polygon,2906
node,898930444,restaurant,Pastis,55.6825061,12.582179,amenity,restaurant,Indre By,Indre By,0.0,official_boundary_point_in_polygon,2906
node,898933924,bar,Cucaracha Bar,55.6823061,12.5816691,amenity,bar,Indre By,Indre By,0.0,official_boundary_point_in_polygon,2906
node,898939487,bar,Basement,55.6818705,12.5825994,amenity,bar,Indre By,Indre By,0.0,official_boundary_point_in_polygon,2906
node,898941047,bar,LaBar,55.6812694,12.5810346,amenity,bar,Indre By,Indre By,0.0,official_boundary_point_in_polygon,2906
node,898950333,bar,Cafe Rex,55.6812502,12.5794331,amenity,bar,Indre By,Indre By,0.0,official_boundary_point_in_polygon,2906
node,898951399,bar,Bo-Bi Bar,55.6810096,12.5786867,amenity,bar,Indre By,Indre By,0.0,official_boundary_point_in_polygon,2906
node,898953156,bar,Hornsleth,55.6805487,12.5771236,amenity,bar,Indre By,Indre By,0.0,official_boundary_point_in_polygon,2906
node,898954822,restaurant,Sole D Italia,55.6799188,12.5764619,amenity,restaurant,Indre By,Indre By,0.0,official_boundary_point_in_polygon,2906
node,898955748,cafe,Huks Fluks,55.6800517,12.5758554,amenity,cafe,Indre By,Indre By,0.0,official_boundary_point_in_polygon,2906
node,898958559,restaurant,Le Pavé,55.6797205,12.5754643,amenity,restaurant,Indre By,Indre By,0.0,official_boundary_point_in_polygon,2906
node,898960148,restaurant,Limone,55.680047,12.5755261,amenity,restaurant,Indre By,Indre By,0.0,official_boundary_point_in_polygon,2906
node,898964645,bar,Den glade Gris,55.6800207,12.5746175,amenity,bar,Indre By,Indre By,0.0,official_boundary_point_in_polygon,2906
node,898972853,cafe,Joe & The Juice,55.6791826,12.5741546,amenity,cafe,Indre By,Indre By,0.0,official_boundary_point_in_polygon,2906
node,898977596,cafe,Konditori La Glace,55.6785929,12.5736372,amenity,cafe,Indre By,Indre By,0.0,official_boundary_point_in_polygon,2906
node,898978277,cafe,Espresso Hourse Vimmelskaftet,55.6786314,12.5738619,amenity,cafe,Indre By,Indre By,0.0,official_boundary_point_in_polygon,2906
node,899016878,toilets,,55.6722208,12.5553189,amenity,toilets,Vesterbro-Kongens Enghave,Vesterbro-Kongens Enghave,0.0,official_boundary_point_in_polygon,2906
node,899018814,cafe,Skammekrogen,55.671735,12.5547646,amenity,cafe,Vesterbro-Kongens Enghave,Vesterbro-Kongens Enghave,0.0,official_boundary_point_in_polygon,2906
node,899019395,bar,Vinbaren Vesterbro Torv,55.671677,12.5547467,amenity,bar,Vesterbro-Kongens Enghave,Vesterbro-Kongens Enghave,0.0,official_boundary_point_in_polygon,2906
node,899136216,pharmacy,Islands Brygge Apotek,55.6669835,12.5781469,amenity,pharmacy,Amager Vest,Amager Vest,0.0,official_boundary_point_in_polygon,2906
node,899170201,cafe,Cafe Alma,55.6654831,12.5786331,amenity,cafe,Amager Vest,Amager Vest,0.0,official_boundary_point_in_polygon,2906
node,899199394,pub,Artillericafeen,55.6644904,12.5838891,amenity,pub,Amager Vest,Amager Vest,0.0,official_boundary_point_in_polygon,2906
node,899219759,cafe,Café Amager,55.6656607,12.5994898,amenity,cafe,Amager Øst,Amager Øst,0.0,official_boundary_point_in_polygon,2906
node,904036719,supermarket,Netto,55.6727991,12.4861399,shop,supermarket,Valby,Valby,0.0,official_boundary_point_in_polygon,2906
node,915114019,restaurant,Giin Khao,55.6663991,12.5982718,amenity,restaurant,Amager Vest,Amager Vest,0.0,official_boundary_point_in_polygon,2906
node,917940173,library,Christianshavns Bibliotek,55.6722942,12.5920924,amenity,library,Indre By,Indre By,0.0,official_boundary_point_in_polygon,2906
node,917945388,library,Rådhusbiblioteket,55.6755517,12.5700009,amenity,library,Indre By,Indre By,0.0,official_boundary_point_in_polygon,2906
node,917948040,library,Solvang Bibliotek,55.6487317,12.5954937,amenity,library,Amager Vest,Amager Vest,0.0,official_boundary_point_in_polygon,2906
node,918050380,library,Østerbro Bibliotek,55.694588,12.5817704,amenity,library,Indre By,Indre By,0.0,official_boundary_point_in_polygon,2906
node,923662035,pub,Esrom Kroen,55.698944,12.5408153,amenity,pub,Nørrebro,Nørrebro,0.0,official_boundary_point_in_polygon,2906
node,940424834,bakery,Lagkagehuset,55.672492,12.5915977,shop,bakery,Indre By,Indre By,0.0,official_boundary_point_in_polygon,2906
node,962964698,restaurant,Restaurant Viva,55.6703413,12.5803577,amenity,restaurant,Indre By,Indre By,0.0,official_boundary_point_in_polygon,2906
node,973626836,bicycle_parking,,55.685401,12.5674727,amenity,bicycle_parking,Indre By,Indre By,0.0,official_boundary_point_in_polygon,2906
node,976747659,pub,Børges Bodega,55.7104835,12.5610308,amenity,pub,Østerbro,Østerbro,0.0,official_boundary_point_in_polygon,2906
node,978057337,bar,Bibendum,55.6837431,12.56518,amenity,bar,Indre By,Indre By,0.0,official_boundary_point_in_polygon,2906
node,1018274960,bench,,55.6698868,12.60025,amenity,bench,Indre By,Indre By,0.0,official_boundary_point_in_polygon,2906
node,1018274976,bench,,55.6697974,12.6001636,amenity,bench,Indre By,Indre By,0.0,official_boundary_point_in_polygon,2906
node,1018274992,bench,,55.6699852,12.600312,amenity,bench,Indre By,Indre By,0.0,official_boundary_point_in_polygon,2906
node,1018296388,bench,,55.6707717,12.6013445,amenity,bench,Indre By,Indre By,0.0,official_boundary_point_in_polygon,2906
node,1018296390,bench,,55.6703693,12.6003826,amenity,bench,Indre By,Indre By,0.0,official_boundary_point_in_polygon,2906
node,1018296394,bench,,55.6700779,12.5995071,amenity,bench,Indre By,Indre By,0.0,official_boundary_point_in_polygon,2906
node,1018296396,bench,,55.6702243,12.6000821,amenity,bench,Indre By,Indre By,0.0,official_boundary_point_in_polygon,2906
node,1018296407,bench,,55.6711041,12.6018132,amenity,bench,Indre By,Indre By,0.0,official_boundary_point_in_polygon,2906
node,1018296420,bench,,55.6709037,12.6013938,amenity,bench,Indre By,Indre By,0.0,official_boundary_point_in_polygon,2906
node,1025718278,bicycle_parking,,55.6645247,12.493503,amenity,bicycle_parking,Valby,Valby,0.0,official_boundary_point_in_polygon,2906
node,1025718283,bicycle_parking,,55.6645191,12.4940494,amenity,bicycle_parking,Valby,Valby,0.0,official_boundary_point_in_polygon,2906
node,1027333656,toilets,,55.6737828,12.6027376,amenity,toilets,Indre By,Indre By,0.0,official_boundary_point_in_polygon,2906
node,1041485940,bicycle_parking,,55.6680524,12.548971,amenity,bicycle_parking,Vesterbro-Kongens Enghave,Vesterbro-Kongens Enghave,0.0,official_boundary_point_in_polygon,2906
node,1041485948,bicycle_parking,,55.6689176,12.5489844,amenity,bicycle_parking,Vesterbro-Kongens Enghave,Vesterbro-Kongens Enghave,0.0,official_boundary_point_in_polygon,2906
node,1041485966,bicycle_parking,,55.6687669,12.5488546,amenity,bicycle_parking,Vesterbro-Kongens Enghave,Vesterbro-Kongens Enghave,0.0,official_boundary_point_in_polygon,2906
node,1041485969,bicycle_parking,,55.671559,12.5482953,amenity,bicycle_parking,Vesterbro-Kongens Enghave,Vesterbro-Kongens Enghave,0.0,official_boundary_point_in_polygon,2906
node,1057077609,bicycle_parking,,55.6676825,12.5501404,amenity,bicycle_parking,Vesterbro-Kongens Enghave,Vesterbro-Kongens Enghave,0.0,official_boundary_point_in_polygon,2906
node,1058784858,bench,,55.6739395,12.5556939,amenity,bench,Indre By,Indre By,0.0,official_boundary_point_in_polygon,2906
node,1058784860,bench,,55.674006,12.5560896,amenity,bench,Indre By,Indre By,0.0,official_boundary_point_in_polygon,2906
node,1058784864,bench,,55.6739698,12.5558801,amenity,bench,Indre By,Indre By,0.0,official_boundary_point_in_polygon,2906
node,1059511324,bench,,55.6671954,12.5431371,amenity,bench,Vesterbro-Kongens Enghave,Vesterbro-Kongens Enghave,0.0,official_boundary_point_in_polygon,2906
node,1059511328,bench,,55.6670818,12.5433591,amenity,bench,Vesterbro-Kongens Enghave,Vesterbro-Kongens Enghave,0.0,official_boundary_point_in_polygon,2906
node,1059511347,bench,,55.6670413,12.543574,amenity,bench,Vesterbro-Kongens Enghave,Vesterbro-Kongens Enghave,0.0,official_boundary_point_in_polygon,2906
node,1059511351,bench,,55.6671265,12.5431296,amenity,bench,Vesterbro-Kongens Enghave,Vesterbro-Kongens Enghave,0.0,official_boundary_point_in_polygon,2906
node,1059511364,bench,,55.6671521,12.542996,amenity,bench,Vesterbro-Kongens Enghave,Vesterbro-Kongens Enghave,0.0,official_boundary_point_in_polygon,2906
node,1059511373,bench,,55.6670618,12.5434735,amenity,bench,Vesterbro-Kongens Enghave,Vesterbro-Kongens Enghave,0.0,official_boundary_point_in_polygon,2906
node,1059529810,bench,,55.6672107,12.5430606,amenity,bench,Vesterbro-Kongens Enghave,Vesterbro-Kongens Enghave,0.0,official_boundary_point_in_polygon,2906
node,1059529816,bench,,55.6671766,12.5428642,amenity,bench,Vesterbro-Kongens Enghave,Vesterbro-Kongens Enghave,0.0,official_boundary_point_in_polygon,2906
node,1059529821,bench,,55.6672713,12.5427386,amenity,bench,Vesterbro-Kongens Enghave,Vesterbro-Kongens Enghave,0.0,official_boundary_point_in_polygon,2906
node,1059529826,bench,,55.6667283,12.5423534,amenity,bench,Vesterbro-Kongens Enghave,Vesterbro-Kongens Enghave,0.0,official_boundary_point_in_polygon,2906
node,1059529841,bench,,55.6668224,12.5422337,amenity,bench,Vesterbro-Kongens Enghave,Vesterbro-Kongens Enghave,0.0,official_boundary_point_in_polygon,2906
node,1059529847,bench,,55.6667198,12.5424021,amenity,bench,Vesterbro-Kongens Enghave,Vesterbro-Kongens Enghave,0.0,official_boundary_point_in_polygon,2906
node,1059529851,bench,,55.66722,12.5430101,amenity,bench,Vesterbro-Kongens Enghave,Vesterbro-Kongens Enghave,0.0,official_boundary_point_in_polygon,2906
node,1059529856,bench,,55.6668009,12.5423612,amenity,bench,Vesterbro-Kongens Enghave,Vesterbro-Kongens Enghave,0.0,official_boundary_point_in_polygon,2906
node,1059529859,bench,,55.6672257,12.5425992,amenity,bench,Vesterbro-Kongens Enghave,Vesterbro-Kongens Enghave,0.0,official_boundary_point_in_polygon,2906
node,1059529881,bench,,55.6667782,12.542493,amenity,bench,Vesterbro-Kongens Enghave,Vesterbro-Kongens Enghave,0.0,official_boundary_point_in_polygon,2906
node,1059529888,bench,,55.6672964,12.5426145,amenity,bench,Vesterbro-Kongens Enghave,Vesterbro-Kongens Enghave,0.0,official_boundary_point_in_polygon,2906
node,1059529893,bench,,55.6672878,12.5426633,amenity,bench,Vesterbro-Kongens Enghave,Vesterbro-Kongens Enghave,0.0,official_boundary_point_in_polygon,2906
node,1059529897,bench,,55.6672011,12.5427325,amenity,bench,Vesterbro-Kongens Enghave,Vesterbro-Kongens Enghave,0.0,official_boundary_point_in_polygon,2906
node,1059529901,bench,,55.6666841,12.5426285,amenity,bench,Vesterbro-Kongens Enghave,Vesterbro-Kongens Enghave,0.0,official_boundary_point_in_polygon,2906
node,1059529931,bench,,55.6672363,12.5429359,amenity,bench,Vesterbro-Kongens Enghave,Vesterbro-Kongens Enghave,0.0,official_boundary_point_in_polygon,2906
node,1059537879,bench,,55.6667592,12.5426272,amenity,bench,Vesterbro-Kongens Enghave,Vesterbro-Kongens Enghave,0.0,official_boundary_point_in_polygon,2906
node,1059537886,bench,,55.6667116,12.5428991,amenity,bench,Vesterbro-Kongens Enghave,Vesterbro-Kongens Enghave,0.0,official_boundary_point_in_polygon,2906
node,1059537888,bench,,55.6666426,12.5428797,amenity,bench,Vesterbro-Kongens Enghave,Vesterbro-Kongens Enghave,0.0,official_boundary_point_in_polygon,2906
node,1059537890,bench,,55.6666751,12.542682,amenity,bench,Vesterbro-Kongens Enghave,Vesterbro-Kongens Enghave,0.0,official_boundary_point_in_polygon,2906
node,1059537903,bench,,55.6667373,12.5427611,amenity,bench,Vesterbro-Kongens Enghave,Vesterbro-Kongens Enghave,0.0,official_boundary_point_in_polygon,2906
node,1059537906,bench,,55.666651,12.5428278,amenity,bench,Vesterbro-Kongens Enghave,Vesterbro-Kongens Enghave,0.0,official_boundary_point_in_polygon,2906
node,1059537910,bench,,55.6666565,12.5432403,amenity,bench,Vesterbro-Kongens Enghave,Vesterbro-Kongens Enghave,0.0,official_boundary_point_in_polygon,2906
node,1059537913,bench,,55.6666755,12.5431231,amenity,bench,Vesterbro-Kongens Enghave,Vesterbro-Kongens Enghave,0.0,official_boundary_point_in_polygon,2906
node,1085763290,supermarket,365discount,55.6610435,12.5036091,shop,supermarket,Valby,Valby,0.0,official_boundary_point_in_polygon,2906
node,1085845908,cafe,Café Emil,55.6649896,12.5128511,amenity,cafe,Valby,Valby,0.0,official_boundary_point_in_polygon,2906
node,1085855265,supermarket,365discount,55.6640971,12.5120967,shop,supermarket,Valby,Valby,0.0,official_boundary_point_in_polygon,2906
node,1109292119,pharmacy,Vanløse Løve Apotek,55.6880013,12.4921263,amenity,pharmacy,Vanløse,Vanløse,0.0,official_boundary_point_in_polygon,2906
node,1109570611,supermarket,Netto,55.696374,12.545982,shop,supermarket,Nørrebro,Nørrebro,0.0,official_boundary_point_in_polygon,2906
node,1109570885,pub,Nørre Bodega,55.6950589,12.5479618,amenity,pub,Nørrebro,Nørrebro,0.0,official_boundary_point_in_polygon,2906
node,1118919064,pub,Cafe Runddelen,55.6942552,12.5482944,amenity,pub,Nørrebro,Nørrebro,0.0,official_boundary_point_in_polygon,2906
node,1118919081,cafe,Cortado kaffebar,55.694305,12.549428,amenity,cafe,Nørrebro,Nørrebro,0.0,official_boundary_point_in_polygon,2906
node,1121970704,pub,Café Under Hylden,55.6979994,12.5358935,amenity,pub,Bispebjerg,Bispebjerg,0.0,official_boundary_point_in_polygon,2906
node,1136433325,pub,Temple Bar,55.689562,12.556587,amenity,pub,Nørrebro,Nørrebro,0.0,official_boundary_point_in_polygon,2906
node,1141447744,cafe,Wulff & Konstali Islands Brygge,55.6654323,12.5780741,amenity,cafe,Amager Vest,Amager Vest,0.0,official_boundary_point_in_polygon,2906
node,1141451331,bar,Landlov,55.7059235,12.5789264,amenity,bar,Østerbro,Østerbro,0.0,official_boundary_point_in_polygon,2906
node,1141451336,cafe,Laundromat Cafe,55.7060804,12.5807091,amenity,cafe,Østerbro,Østerbro,0.0,official_boundary_point_in_polygon,2906
node,1141793350,bench,,55.6704515,12.5522929,amenity,bench,Vesterbro-Kongens Enghave,Vesterbro-Kongens Enghave,0.0,official_boundary_point_in_polygon,2906
node,1141793351,bench,,55.6704545,12.5524189,amenity,bench,Vesterbro-Kongens Enghave,Vesterbro-Kongens Enghave,0.0,official_boundary_point_in_polygon,2906
node,1142331997,bench,,55.6711873,12.5533471,amenity,bench,Vesterbro-Kongens Enghave,Vesterbro-Kongens Enghave,0.0,official_boundary_point_in_polygon,2906
node,1142332001,bench,,55.6712865,12.5533913,amenity,bench,Vesterbro-Kongens Enghave,Vesterbro-Kongens Enghave,0.0,official_boundary_point_in_polygon,2906
node,1142332006,bench,,55.6712592,12.5533443,amenity,bench,Vesterbro-Kongens Enghave,Vesterbro-Kongens Enghave,0.0,official_boundary_point_in_polygon,2906
node,1142332009,bench,,55.6712842,12.5536019,amenity,bench,Vesterbro-Kongens Enghave,Vesterbro-Kongens Enghave,0.0,official_boundary_point_in_polygon,2906
node,1142332015,bench,,55.6712864,12.5534329,amenity,bench,Vesterbro-Kongens Enghave,Vesterbro-Kongens Enghave,0.0,official_boundary_point_in_polygon,2906
node,1142332029,bench,,55.6712781,12.5536703,amenity,bench,Vesterbro-Kongens Enghave,Vesterbro-Kongens Enghave,0.0,official_boundary_point_in_polygon,2906
node,1142332034,bench,,55.6712887,12.5534812,amenity,bench,Vesterbro-Kongens Enghave,Vesterbro-Kongens Enghave,0.0,official_boundary_point_in_polygon,2906
node,1142332037,bench,,55.6712811,12.5536367,amenity,bench,Vesterbro-Kongens Enghave,Vesterbro-Kongens Enghave,0.0,official_boundary_point_in_polygon,2906
node,1142332042,bench,,55.6712358,12.5533443,amenity,bench,Vesterbro-Kongens Enghave,Vesterbro-Kongens Enghave,0.0,official_boundary_point_in_polygon,2906
node,1142332049,bench,,55.6712865,12.553563,amenity,bench,Vesterbro-Kongens Enghave,Vesterbro-Kongens Enghave,0.0,official_boundary_point_in_polygon,2906
node,1142332062,bench,,55.6712895,12.5535228,amenity,bench,Vesterbro-Kongens Enghave,Vesterbro-Kongens Enghave,0.0,official_boundary_point_in_polygon,2906
node,1142332064,bench,,55.6712078,12.5533457,amenity,bench,Vesterbro-Kongens Enghave,Vesterbro-Kongens Enghave,0.0,official_boundary_point_in_polygon,2906
node,1142416877,toilets,,55.6815768,12.4732724,amenity,toilets,Vanløse,Vanløse,0.0,official_boundary_point_in_polygon,2906
node,1143752189,bench,,55.6779883,12.5632149,amenity,bench,Indre By,Indre By,0.0,official_boundary_point_in_polygon,2906
node,1144519878,bench,,55.6607391,12.5043778,amenity,bench,Valby,Valby,0.0,official_boundary_point_in_polygon,2906
node,1144519902,bench,,55.6596953,12.505338,amenity,bench,Valby,Valby,0.0,official_boundary_point_in_polygon,2906
node,1145322416,bicycle_parking,,55.6576263,12.6175267,amenity,bicycle_parking,Amager Øst,Amager Øst,0.0,official_boundary_point_in_polygon,2906
node,1145323868,bicycle_parking,,55.6909616,12.575997,amenity,bicycle_parking,Indre By,Indre By,0.0,official_boundary_point_in_polygon,2906
node,1145368603,bench,,55.6607573,12.6116555,amenity,bench,Amager Øst,Amager Øst,0.0,official_boundary_point_in_polygon,2906
node,1147077491,bicycle_parking,,55.6832096,12.5677971,amenity,bicycle_parking,Indre By,Indre By,0.0,official_boundary_point_in_polygon,2906
node,1158009578,supermarket,Netto,55.7029935,12.5308295,shop,supermarket,Bispebjerg,Bispebjerg,0.0,official_boundary_point_in_polygon,2906
node,1165931111,supermarket,Netto,55.699869,12.552929,shop,supermarket,Nørrebro,Nørrebro,0.0,official_boundary_point_in_polygon,2906
node,1185821663,supermarket,Min Købmand,55.6821757,12.5629626,shop,supermarket,Indre By,Indre By,0.0,official_boundary_point_in_polygon,2906
node,1193140906,toilets,,55.7141391,12.5308629,amenity,toilets,Bispebjerg,Bispebjerg,0.0,official_boundary_point_in_polygon,2906
node,1197486648,supermarket,Netto,55.6888362,12.5578023,shop,supermarket,Nørrebro,Nørrebro,0.0,official_boundary_point_in_polygon,2906
node,1197486718,supermarket,SuperBrugsen,55.689451,12.5560932,shop,supermarket,Nørrebro,Nørrebro,0.0,official_boundary_point_in_polygon,2906
node,1200013172,supermarket,365discount,55.6918594,12.5383679,shop,supermarket,Nørrebro,Nørrebro,0.0,official_boundary_point_in_polygon,2906
node,1200105789,bar,Kassen,55.6880152,12.5606456,amenity,bar,Nørrebro,Nørrebro,0.0,official_boundary_point_in_polygon,2906
node,1200105792,supermarket,365discount,55.6878171,12.5613332,shop,supermarket,Nørrebro,Nørrebro,0.0,official_boundary_point_in_polygon,2906
node,1200105801,bakery,Emmerys,55.6874681,12.5622798,shop,bakery,Nørrebro,Nørrebro,0.0,official_boundary_point_in_polygon,2906
node,1200114179,pub,Mucki Bar,55.6960958,12.5475371,amenity,pub,Nørrebro,Nørrebro,0.0,official_boundary_point_in_polygon,2906
node,1205566234,bicycle_parking,,55.6781383,12.6025898,amenity,bicycle_parking,Indre By,Indre By,0.0,official_boundary_point_in_polygon,2906
node,1206449574,bicycle_parking,,55.6716608,12.5913566,amenity,bicycle_parking,Indre By,Indre By,0.0,official_boundary_point_in_polygon,2906
node,1206449717,restaurant,Restaurant Long Feng,55.6718729,12.5920754,amenity,restaurant,Indre By,Indre By,0.0,official_boundary_point_in_polygon,2906
node,1206526029,toilets,,55.6700252,12.5927029,amenity,toilets,Indre By,Indre By,0.0,official_boundary_point_in_polygon,2906
node,1210423311,bakery,Meyers Bageri,55.691897,12.544907,shop,bakery,Nørrebro,Nørrebro,0.0,official_boundary_point_in_polygon,2906
node,1214852312,restaurant,Watami Vanløse,55.6845586,12.4835146,amenity,restaurant,Vanløse,Vanløse,0.0,official_boundary_point_in_polygon,2906
node,1215516341,bicycle_parking,,55.6874981,12.4915463,amenity,bicycle_parking,Vanløse,Vanløse,0.0,official_boundary_point_in_polygon,2906
node,1215870277,cafe,Damhuskanten,55.6814075,12.473345,amenity,cafe,Vanløse,Vanløse,0.0,official_boundary_point_in_polygon,2906
node,1215944654,bicycle_parking,,55.699578,12.5150802,amenity,bicycle_parking,Vanløse,Vanløse,0.0,official_boundary_point_in_polygon,2906
node,1219207473,bicycle_parking,,55.6863341,12.5704031,amenity,bicycle_parking,Indre By,Indre By,0.0,official_boundary_point_in_polygon,2906
node,1223225246,bench,,55.6707865,12.5939559,amenity,bench,Indre By,Indre By,0.0,official_boundary_point_in_polygon,2906
node,1224127589,toilets,,55.6776341,12.5808715,amenity,toilets,Indre By,Indre By,0.0,official_boundary_point_in_polygon,2906
node,1224762659,museum,Spejdermuseet,55.6752141,12.6023368,tourism,museum,Indre By,Indre By,0.0,official_boundary_point_in_polygon,2906
node,1226093876,bicycle_parking,,55.6587207,12.591732,amenity,bicycle_parking,Amager Vest,Amager Vest,0.0,official_boundary_point_in_polygon,2906
node,1227811003,toilets,,55.6727027,12.5873207,amenity,toilets,Indre By,Indre By,0.0,official_boundary_point_in_polygon,2906
node,1228031388,bench,,55.6950612,12.5426355,amenity,bench,Nørrebro,Nørrebro,0.0,official_boundary_point_in_polygon,2906
node,1234145622,cafe,Månefiskeren,55.673593,12.60148,amenity,cafe,Indre By,Indre By,0.0,official_boundary_point_in_polygon,2906
node,1237006755,bench,,55.6595405,12.5051638,amenity,bench,Valby,Valby,0.0,official_boundary_point_in_polygon,2906
node,1237006763,bench,,55.6594209,12.505593,amenity,bench,Valby,Valby,0.0,official_boundary_point_in_polygon,2906
node,1239313216,restaurant,Christianshavns Færgecafé,55.6754822,12.5924697,amenity,restaurant,Indre By,Indre By,0.0,official_boundary_point_in_polygon,2906
node,1241018069,bench,,55.647101,12.5785091,amenity,bench,Amager Vest,Amager Vest,0.0,official_boundary_point_in_polygon,2906
node,1241085669,toilets,,55.6418683,12.5202212,amenity,toilets,Valby,Valby,0.0,official_boundary_point_in_polygon,2906
node,1274385925,restaurant,Mother,55.6685053,12.5576615,amenity,restaurant,Vesterbro-Kongens Enghave,Vesterbro-Kongens Enghave,0.0,official_boundary_point_in_polygon,2906
node,1278093389,bar,Perikles Bodega,55.7141553,12.5717271,amenity,bar,Østerbro,Østerbro,0.0,official_boundary_point_in_polygon,2906
node,1291394245,museum,Davids Samling,55.6842796,12.5823849,tourism,museum,Indre By,Indre By,0.0,official_boundary_point_in_polygon,2906
node,1293094360,bicycle_parking,,55.6651054,12.5126164,amenity,bicycle_parking,Valby,Valby,0.0,official_boundary_point_in_polygon,2906
node,1293108472,bicycle_parking,,55.6649337,12.5098201,amenity,bicycle_parking,Valby,Valby,0.0,official_boundary_point_in_polygon,2906
node,1300631580,cafe,Kaffe,55.6691207,12.5526474,amenity,cafe,Vesterbro-Kongens Enghave,Vesterbro-Kongens Enghave,0.0,official_boundary_point_in_polygon,2906
node,1303503117,bicycle_parking,,55.6943497,12.5476369,amenity,bicycle_parking,Nørrebro,Nørrebro,0.0,official_boundary_point_in_polygon,2906
node,1304586256,restaurant,Kate`s Joint,55.6869993,12.558727,amenity,restaurant,Nørrebro,Nørrebro,0.0,official_boundary_point_in_polygon,2906
node,1304611931,cafe,Kaffeslabberasen,55.6668363,12.5462605,amenity,cafe,Vesterbro-Kongens Enghave,Vesterbro-Kongens Enghave,0.0,official_boundary_point_in_polygon,2906
node,1306239353,bench,,55.6595761,12.5288874,amenity,bench,Vesterbro-Kongens Enghave,Vesterbro-Kongens Enghave,0.0,official_boundary_point_in_polygon,2906
node,1307939965,bench,,55.6400336,12.5190652,amenity,bench,Valby,Valby,0.0,official_boundary_point_in_polygon,2906
node,1307939990,bench,,55.6400151,12.5190759,amenity,bench,Valby,Valby,0.0,official_boundary_point_in_polygon,2906
node,1307948796,toilets,,55.6447042,12.5198459,amenity,toilets,Valby,Valby,0.0,official_boundary_point_in_polygon,2906
node,1321111715,cafe,Café Nemoland,55.6727811,12.6001646,amenity,cafe,Indre By,Indre By,0.0,official_boundary_point_in_polygon,2906
node,1324781959,bar,Toga Vinstue,55.6787751,12.5803397,amenity,bar,Indre By,Indre By,0.0,official_boundary_point_in_polygon,2906
node,1338615549,toilets,,55.7168685,12.4791371,amenity,toilets,Brønshøj-Husum,Brønshøj-Husum,0.0,official_boundary_point_in_polygon,2906
node,1339896955,bench,,55.6575362,12.6435786,amenity,bench,Amager Øst,Amager Øst,0.0,official_boundary_point_in_polygon,2906
node,1339896958,bench,,55.655336,12.6464245,amenity,bench,Amager Øst,Amager Øst,0.0,official_boundary_point_in_polygon,2906
node,1339896964,bench,,55.648347,12.648576,amenity,bench,Amager Øst,Amager Øst,0.0,official_boundary_point_in_polygon,2906
node,1339896966,bench,,55.6476769,12.648369,amenity,bench,Amager Øst,Amager Øst,0.0,official_boundary_point_in_polygon,2906
node,1346361898,bicycle_parking,,55.6807409,12.5876187,amenity,bicycle_parking,Indre By,Indre By,0.0,official_boundary_point_in_polygon,2906
node,1358980017,bar,Jaguaren,55.6643102,12.6032096,amenity,bar,Amager Øst,Amager Øst,0.0,official_boundary_point_in_polygon,2906
node,1358983535,pub,Bootleggers Craft Beer Bar,55.664579,12.604527,amenity,pub,Amager Øst,Amager Øst,0.0,official_boundary_point_in_polygon,2906
node,1368691920,bench,,55.633262,12.5767077,amenity,bench,Amager Vest,Amager Vest,0.0,official_boundary_point_in_polygon,2906
node,1369021921,bicycle_parking,,55.7023154,12.5463624,amenity,bicycle_parking,Nørrebro,Nørrebro,0.0,official_boundary_point_in_polygon,2906
node,1369021922,bicycle_parking,,55.6990567,12.5434442,amenity,bicycle_parking,Nørrebro,Nørrebro,0.0,official_boundary_point_in_polygon,2906
node,1369021923,pub,Cafe Heimdal,55.7007099,12.5417497,amenity,pub,Nørrebro,Nørrebro,0.0,official_boundary_point_in_polygon,2906
node,1369086109,cafe,Norm,55.6499787,12.6124431,amenity,cafe,Amager Vest,Amager Vest,0.0,official_boundary_point_in_polygon,2906
node,1369294117,bicycle_parking,,55.6704755,12.5529726,amenity,bicycle_parking,Vesterbro-Kongens Enghave,Vesterbro-Kongens Enghave,0.0,official_boundary_point_in_polygon,2906
node,1369297362,bicycle_parking,,55.6697177,12.5461786,amenity,bicycle_parking,Vesterbro-Kongens Enghave,Vesterbro-Kongens Enghave,0.0,official_boundary_point_in_polygon,2906
node,1369297365,bicycle_parking,,55.6706359,12.5527335,amenity,bicycle_parking,Vesterbro-Kongens Enghave,Vesterbro-Kongens Enghave,0.0,official_boundary_point_in_polygon,2906
node,1369297372,bicycle_parking,,55.6707765,12.5527069,amenity,bicycle_parking,Vesterbro-Kongens Enghave,Vesterbro-Kongens Enghave,0.0,official_boundary_point_in_polygon,2906
node,1369300887,bicycle_parking,,55.6704922,12.544411,amenity,bicycle_parking,Vesterbro-Kongens Enghave,Vesterbro-Kongens Enghave,0.0,official_boundary_point_in_polygon,2906
node,1369300888,bicycle_parking,,55.6703212,12.5442474,amenity,bicycle_parking,Vesterbro-Kongens Enghave,Vesterbro-Kongens Enghave,0.0,official_boundary_point_in_polygon,2906
node,1369300889,bicycle_parking,,55.6710299,12.543896,amenity,bicycle_parking,Vesterbro-Kongens Enghave,Vesterbro-Kongens Enghave,0.0,official_boundary_point_in_polygon,2906
node,1369300890,bicycle_parking,,55.6702987,12.544595,amenity,bicycle_parking,Vesterbro-Kongens Enghave,Vesterbro-Kongens Enghave,0.0,official_boundary_point_in_polygon,2906
node,1369300891,bicycle_parking,,55.6695619,12.5451486,amenity,bicycle_parking,Vesterbro-Kongens Enghave,Vesterbro-Kongens Enghave,0.0,official_boundary_point_in_polygon,2906
node,1369346326,bicycle_parking,,55.6637256,12.5423296,amenity,bicycle_parking,Vesterbro-Kongens Enghave,Vesterbro-Kongens Enghave,0.0,official_boundary_point_in_polygon,2906
node,1369346330,bicycle_parking,,55.664653,12.5479059,amenity,bicycle_parking,Vesterbro-Kongens Enghave,Vesterbro-Kongens Enghave,0.0,official_boundary_point_in_polygon,2906
node,1369346332,bicycle_parking,,55.6646893,12.5480535,amenity,bicycle_parking,Vesterbro-Kongens Enghave,Vesterbro-Kongens Enghave,0.0,official_boundary_point_in_polygon,2906
node,1369346349,bicycle_parking,,55.6643172,12.5484625,amenity,bicycle_parking,Vesterbro-Kongens Enghave,Vesterbro-Kongens Enghave,0.0,official_boundary_point_in_polygon,2906
node,1369346353,bicycle_parking,,55.6641587,12.5458044,amenity,bicycle_parking,Vesterbro-Kongens Enghave,Vesterbro-Kongens Enghave,0.0,official_boundary_point_in_polygon,2906
node,1369346365,bicycle_parking,,55.6644299,12.5483794,amenity,bicycle_parking,Vesterbro-Kongens Enghave,Vesterbro-Kongens Enghave,0.0,official_boundary_point_in_polygon,2906
node,1369366560,bicycle_parking,,55.6654972,12.5514813,amenity,bicycle_parking,Vesterbro-Kongens Enghave,Vesterbro-Kongens Enghave,0.0,official_boundary_point_in_polygon,2906
node,1369366568,bicycle_parking,,55.6645532,12.5490888,amenity,bicycle_parking,Vesterbro-Kongens Enghave,Vesterbro-Kongens Enghave,0.0,official_boundary_point_in_polygon,2906
node,1369366590,bicycle_parking,,55.6653716,12.5513071,amenity,bicycle_parking,Vesterbro-Kongens Enghave,Vesterbro-Kongens Enghave,0.0,official_boundary_point_in_polygon,2906
node,1369366593,bicycle_parking,,55.6657392,12.5512131,amenity,bicycle_parking,Vesterbro-Kongens Enghave,Vesterbro-Kongens Enghave,0.0,official_boundary_point_in_polygon,2906
node,1369366594,bicycle_parking,,55.6653187,12.5513313,amenity,bicycle_parking,Vesterbro-Kongens Enghave,Vesterbro-Kongens Enghave,0.0,official_boundary_point_in_polygon,2906
node,1369366599,bicycle_parking,,55.6648905,12.5487455,amenity,bicycle_parking,Vesterbro-Kongens Enghave,Vesterbro-Kongens Enghave,0.0,official_boundary_point_in_polygon,2906
node,1369366613,bicycle_parking,,55.6656106,12.5513848,amenity,bicycle_parking,Vesterbro-Kongens Enghave,Vesterbro-Kongens Enghave,0.0,official_boundary_point_in_polygon,2906
node,1369375858,bicycle_parking,,55.6652329,12.5517504,amenity,bicycle_parking,Vesterbro-Kongens Enghave,Vesterbro-Kongens Enghave,0.0,official_boundary_point_in_polygon,2906
node,1369375859,bicycle_parking,,55.6653883,12.5515779,amenity,bicycle_parking,Vesterbro-Kongens Enghave,Vesterbro-Kongens Enghave,0.0,official_boundary_point_in_polygon,2906
node,1369375860,bicycle_parking,,55.6650766,12.5515457,amenity,bicycle_parking,Vesterbro-Kongens Enghave,Vesterbro-Kongens Enghave,0.0,official_boundary_point_in_polygon,2906
node,1369375861,bicycle_parking,,55.6652975,12.5516986,amenity,bicycle_parking,Vesterbro-Kongens Enghave,Vesterbro-Kongens Enghave,0.0,official_boundary_point_in_polygon,2906
node,1369375862,bicycle_parking,,55.6648164,12.5521385,amenity,bicycle_parking,Vesterbro-Kongens Enghave,Vesterbro-Kongens Enghave,0.0,official_boundary_point_in_polygon,2906
node,1369384750,bicycle_parking,,55.6661643,12.5533991,amenity,bicycle_parking,Vesterbro-Kongens Enghave,Vesterbro-Kongens Enghave,0.0,official_boundary_point_in_polygon,2906
node,1369735143,bicycle_parking,,55.6654654,12.5544233,amenity,bicycle_parking,Vesterbro-Kongens Enghave,Vesterbro-Kongens Enghave,0.0,official_boundary_point_in_polygon,2906
node,1369735144,bicycle_parking,,55.664967,12.5546728,amenity,bicycle_parking,Vesterbro-Kongens Enghave,Vesterbro-Kongens Enghave,0.0,official_boundary_point_in_polygon,2906
node,1369735145,bicycle_parking,,55.6655229,12.5543589,amenity,bicycle_parking,Vesterbro-Kongens Enghave,Vesterbro-Kongens Enghave,0.0,official_boundary_point_in_polygon,2906
node,1369735146,bicycle_parking,,55.6656606,12.5542275,amenity,bicycle_parking,Vesterbro-Kongens Enghave,Vesterbro-Kongens Enghave,0.0,official_boundary_point_in_polygon,2906
node,1369735148,bicycle_parking,,55.6654344,12.5544528,amenity,bicycle_parking,Vesterbro-Kongens Enghave,Vesterbro-Kongens Enghave,0.0,official_boundary_point_in_polygon,2906
node,1369735149,bicycle_parking,,55.6655494,12.5543375,amenity,bicycle_parking,Vesterbro-Kongens Enghave,Vesterbro-Kongens Enghave,0.0,official_boundary_point_in_polygon,2906
node,1369735150,bicycle_parking,,55.6655146,12.5552736,amenity,bicycle_parking,Vesterbro-Kongens Enghave,Vesterbro-Kongens Enghave,0.0,official_boundary_point_in_polygon,2906
node,1369735152,bicycle_parking,,55.6660191,12.5541524,amenity,bicycle_parking,Vesterbro-Kongens Enghave,Vesterbro-Kongens Enghave,0.0,official_boundary_point_in_polygon,2906
node,1369735153,bicycle_parking,,55.6651478,12.5545051,amenity,bicycle_parking,Vesterbro-Kongens Enghave,Vesterbro-Kongens Enghave,0.0,official_boundary_point_in_polygon,2906
node,1369735154,bicycle_parking,,55.6656349,12.5542651,amenity,bicycle_parking,Vesterbro-Kongens Enghave,Vesterbro-Kongens Enghave,0.0,official_boundary_point_in_polygon,2906
node,1369735155,bicycle_parking,,55.6653565,12.5545252,amenity,bicycle_parking,Vesterbro-Kongens Enghave,Vesterbro-Kongens Enghave,0.0,official_boundary_point_in_polygon,2906
node,1369735156,bicycle_parking,,55.6652847,12.5545816,amenity,bicycle_parking,Vesterbro-Kongens Enghave,Vesterbro-Kongens Enghave,0.0,official_boundary_point_in_polygon,2906
node,1369735158,bicycle_parking,,55.6654019,12.554477,amenity,bicycle_parking,Vesterbro-Kongens Enghave,Vesterbro-Kongens Enghave,0.0,official_boundary_point_in_polygon,2906
node,1369740416,bicycle_parking,,55.6655887,12.5564618,amenity,bicycle_parking,Vesterbro-Kongens Enghave,Vesterbro-Kongens Enghave,0.0,official_boundary_point_in_polygon,2906
node,1369740419,bicycle_parking,,55.6654531,12.5560668,amenity,bicycle_parking,Vesterbro-Kongens Enghave,Vesterbro-Kongens Enghave,0.0,official_boundary_point_in_polygon,2906
node,1369740420,bicycle_parking,,55.6651145,12.5568816,amenity,bicycle_parking,Vesterbro-Kongens Enghave,Vesterbro-Kongens Enghave,0.0,official_boundary_point_in_polygon,2906
node,1369740421,bicycle_parking,,55.6651183,12.556549,amenity,bicycle_parking,Vesterbro-Kongens Enghave,Vesterbro-Kongens Enghave,0.0,official_boundary_point_in_polygon,2906
node,1369740422,bicycle_parking,,55.6651372,12.5571619,amenity,bicycle_parking,Vesterbro-Kongens Enghave,Vesterbro-Kongens Enghave,0.0,official_boundary_point_in_polygon,2906
node,1369740423,bicycle_parking,,55.6650984,12.5567164,amenity,bicycle_parking,Vesterbro-Kongens Enghave,Vesterbro-Kongens Enghave,0.0,official_boundary_point_in_polygon,2906
node,1369740424,bicycle_parking,,55.6651197,12.5569661,amenity,bicycle_parking,Vesterbro-Kongens Enghave,Vesterbro-Kongens Enghave,0.0,official_boundary_point_in_polygon,2906
node,1369744162,bicycle_parking,,55.6658635,12.5558382,amenity,bicycle_parking,Vesterbro-Kongens Enghave,Vesterbro-Kongens Enghave,0.0,official_boundary_point_in_polygon,2906
node,1369744176,bicycle_parking,,55.6659238,12.5556404,amenity,bicycle_parking,Vesterbro-Kongens Enghave,Vesterbro-Kongens Enghave,0.0,official_boundary_point_in_polygon,2906
node,1369744180,bicycle_parking,,55.6661291,12.554456,amenity,bicycle_parking,Vesterbro-Kongens Enghave,Vesterbro-Kongens Enghave,0.0,official_boundary_point_in_polygon,2906
node,1369744184,bicycle_parking,,55.6655948,12.5569875,amenity,bicycle_parking,Vesterbro-Kongens Enghave,Vesterbro-Kongens Enghave,0.0,official_boundary_point_in_polygon,2906
node,1369744189,bicycle_parking,,55.6656621,12.5565986,amenity,bicycle_parking,Vesterbro-Kongens Enghave,Vesterbro-Kongens Enghave,0.0,official_boundary_point_in_polygon,2906
node,1369750326,bicycle_parking,,55.6664692,12.5543013,amenity,bicycle_parking,Vesterbro-Kongens Enghave,Vesterbro-Kongens Enghave,0.0,official_boundary_point_in_polygon,2906
node,1369750327,bicycle_parking,,55.6663187,12.5544984,amenity,bicycle_parking,Vesterbro-Kongens Enghave,Vesterbro-Kongens Enghave,0.0,official_boundary_point_in_polygon,2906
node,1369988235,bicycle_parking,,55.6749182,12.5590832,amenity,bicycle_parking,Indre By,Indre By,0.0,official_boundary_point_in_polygon,2906
node,1369988243,bicycle_parking,,55.6734201,12.5501863,amenity,bicycle_parking,Vesterbro-Kongens Enghave,Vesterbro-Kongens Enghave,0.0,official_boundary_point_in_polygon,2906
node,1369988249,bicycle_parking,,55.6739714,12.556527,amenity,bicycle_parking,Indre By,Indre By,0.0,official_boundary_point_in_polygon,2906
node,1369988253,bicycle_parking,,55.6742247,12.5575382,amenity,bicycle_parking,Indre By,Indre By,0.0,official_boundary_point_in_polygon,2906
node,1369998373,bicycle_parking,,55.6794047,12.5615937,amenity,bicycle_parking,Indre By,Indre By,0.0,official_boundary_point_in_polygon,2906
node,1369998374,bicycle_parking,,55.6786803,12.5609527,amenity,bicycle_parking,Indre By,Indre By,0.0,official_boundary_point_in_polygon,2906
node,1369998376,bicycle_parking,,55.6790992,12.5625754,amenity,bicycle_parking,Indre By,Indre By,0.0,official_boundary_point_in_polygon,2906
node,1369998377,bicycle_parking,,55.6791385,12.56209,amenity,bicycle_parking,Indre By,Indre By,0.0,official_boundary_point_in_polygon,2906
node,1369998378,bicycle_parking,,55.6797374,12.5616903,amenity,bicycle_parking,Indre By,Indre By,0.0,official_boundary_point_in_polygon,2906
node,1369998385,bicycle_parking,,55.6793064,12.5616608,amenity,bicycle_parking,Indre By,Indre By,0.0,official_boundary_point_in_polygon,2906
node,1369998388,bicycle_parking,,55.6790236,12.5616528,amenity,bicycle_parking,Indre By,Indre By,0.0,official_boundary_point_in_polygon,2906
node,1369998391,bicycle_parking,,55.6800156,12.5617493,amenity,bicycle_parking,Indre By,Indre By,0.0,official_boundary_point_in_polygon,2906
node,1369998394,bicycle_parking,,55.6784504,12.5608856,amenity,bicycle_parking,Indre By,Indre By,0.0,official_boundary_point_in_polygon,2906
node,1369998397,bicycle_parking,,55.6789631,12.561009,amenity,bicycle_parking,Indre By,Indre By,0.0,official_boundary_point_in_polygon,2906
node,1369998398,bicycle_parking,,55.6796376,12.5630797,amenity,bicycle_parking,Indre By,Indre By,0.0,official_boundary_point_in_polygon,2906
node,1370005747,bicycle_parking,,55.6776489,12.5629375,amenity,bicycle_parking,Indre By,Indre By,0.0,official_boundary_point_in_polygon,2906
node,1370005758,bicycle_parking,,55.6773173,12.5626478,amenity,bicycle_parking,Indre By,Indre By,0.0,official_boundary_point_in_polygon,2906
node,1370005759,bicycle_parking,,55.6772319,12.5625969,amenity,bicycle_parking,Indre By,Indre By,0.0,official_boundary_point_in_polygon,2906
node,1370005760,bicycle_parking,,55.6771563,12.5625365,amenity,bicycle_parking,Indre By,Indre By,0.0,official_boundary_point_in_polygon,2906
node,1370005767,bicycle_parking,,55.6769233,12.5624299,amenity,bicycle_parking,Indre By,Indre By,0.0,official_boundary_point_in_polygon,2906
node,1370005770,bicycle_parking,,55.6770885,12.5625137,amenity,bicycle_parking,Indre By,Indre By,0.0,official_boundary_point_in_polygon,2906
node,1370005773,bicycle_parking,,55.6777804,12.5630341,amenity,bicycle_parking,Indre By,Indre By,0.0,official_boundary_point_in_polygon,2906
node,1370005775,bicycle_parking,,55.6770065,12.5624655,amenity,bicycle_parking,Indre By,Indre By,0.0,official_boundary_point_in_polygon,2906
node,1370008821,bicycle_parking,,55.6767876,12.5623736,amenity,bicycle_parking,Indre By,Indre By,0.0,official_boundary_point_in_polygon,2906
node,1370008823,bicycle_parking,,55.6758945,12.5622053,amenity,bicycle_parking,Indre By,Indre By,0.0,official_boundary_point_in_polygon,2906
node,1370008825,bicycle_parking,,55.6757403,12.5621986,amenity,bicycle_parking,Indre By,Indre By,0.0,official_boundary_point_in_polygon,2906
node,1370008826,bicycle_parking,,55.675665,12.5622066,amenity,bicycle_parking,Indre By,Indre By,0.0,official_boundary_point_in_polygon,2906
node,1370008827,bicycle_parking,,55.6758272,12.5622006,amenity,bicycle_parking,Indre By,Indre By,0.0,official_boundary_point_in_polygon,2906
node,1370012053,bicycle_parking,,55.6760427,12.5617279,amenity,bicycle_parking,Indre By,Indre By,0.0,official_boundary_point_in_polygon,2906
node,1370012054,bicycle_parking,,55.6773025,12.5622267,amenity,bicycle_parking,Indre By,Indre By,0.0,official_boundary_point_in_polygon,2906
